{
  "airports": [
    {
      "airport": {
        "Name": "Aberdeen Regional Airport",
        "City": "Aberdeen",
        "State": "South Dakota",
        "Latitude": "45.458978853892",
        "Longitude": "-98.417927541822",
        "ShortCode": "ABR",
        "Precheck": "True",
        "Airline": "Delta Air Lines",
        "DST": "True",
        "UTC": "-6",
        "closestWeatherStationID": "KABR"
      }
    },
    {
      "airport": {
        "Name": "Abilene Regional Airport",
        "City": "Abilene",
        "State": "Texas",
        "Latitude": "32.448736221000",
        "Longitude": "-99.733136960000",
        "ShortCode": "ABI",
        "Precheck": "True",
        "Airline": "American Airlines",
        "DST": "True",
        "UTC": "-6",
        "closestWeatherStationID": "KABI"
      }
    },
    {
      "airport": {
        "Name": "Abraham Lincoln Capital Airport",
        "City": "Springfield",
        "State": "Illinois",
        "Latitude": "39.844347997063",
        "Longitude": "-89.671729550278",
        "ShortCode": "SPI",
        "Precheck": "False",
        "Airline": null,
        "DST": "True",
        "UTC": "-6",
        "closestWeatherStationID": "KSPI"
      }
    },
    {
      "airport": {
        "Name": "Adak Airport",
        "City": "Adak Island",
        "State": "Alaska",
        "Latitude": "51.883582100000",
        "Longitude": "-176.642479900000",
        "ShortCode": "ADK",
        "Precheck": "False",
        "Airline": null,
        "DST": "False",
        "UTC": "-10",
        "closestWeatherStationID": "PADK"
      }
    },
    {
      "airport": {
        "Name": "Adirondack Regional Airport ",
        "City": "Saranac Lake",
        "State": "New York",
        "Latitude": "44.344936504417",
        "Longitude": "-74.328451754244",
        "ShortCode": "SLK",
        "Precheck": "False",
        "Airline": null,
        "DST": "True",
        "UTC": "-5",
        "closestWeatherStationID": "KSLK"
      }
    },
    {
      "airport": {
        "Name": "Akron-Canton Airport",
        "City": "North Canton",
        "State": "Ohio",
        "Latitude": "40.917792592255",
        "Longitude": "-81.430167152791",
        "ShortCode": "CAK",
        "Precheck": "True",
        "Airline": "Allegiant Air, Delta Air Lines, Southwest Airlines, Spirit Airlines, United Airlines",
        "DST": "True",
        "UTC": "-5",
        "closestWeatherStationID": "KCAK"
      }
    },
    {
      "airport": {
        "Name": "Albany International Airport",
        "City": "Albany",
        "State": "New York",
        "Latitude": "42.742068211680",
        "Longitude": "-73.809185981947",
        "ShortCode": "ALB",
        "Precheck": "True",
        "Airline": "Aeromexico, Cape Air, Delta Air Lines, Southwest Airlines, United Airlines",
        "DST": "True",
        "UTC": "-5",
        "closestWeatherStationID": "KALB"
      }
    },
    {
      "airport": {
        "Name": "Albert J. Ellis Airport",
        "City": "Richlands",
        "State": "North Carolina",
        "Latitude": "34.899326712000",
        "Longitude": "-77.546627688000",
        "ShortCode": "OAJ",
        "Precheck": "False",
        "Airline": null,
        "DST": "True",
        "UTC": "-5",
        "closestWeatherStationID": "KOAJ"
      }
    },
    {
      "airport": {
        "Name": "Albuquerque International Sunport Airport",
        "City": "Albuquerque",
        "State": "New Mexico",
        "Latitude": "35.049595818793",
        "Longitude": "-106.618285964620",
        "ShortCode": "ABQ",
        "Precheck": "True",
        "Airline": "American Airlines, Boutique Airlines, Delta Air Lines, JetBlue Airways, Southwest Airlines, United Airlines",
        "DST": "True",
        "UTC": "-7",
        "closestWeatherStationID": "KABQ"
      }
    },
    {
      "airport": {
        "Name": "Alexandria International Airport",
        "City": "Alexandria",
        "State": "Louisiana",
        "Latitude": "31.311286679000",
        "Longitude": "-92.445138327000",
        "ShortCode": "AEX",
        "Precheck": "False",
        "Airline": null,
        "DST": "True",
        "UTC": "-6",
        "closestWeatherStationID": "KAEX"
      }
    },
    {
      "airport": {
        "Name": "Alliance Municipal Airport ",
        "City": "Alliance",
        "State": "Nebraska",
        "Latitude": "42.053222200000",
        "Longitude": "-102.803750000000",
        "ShortCode": "AIA",
        "Precheck": "False",
        "Airline": null,
        "DST": "True",
        "UTC": "-7",
        "closestWeatherStationID": "KAIA"
      }
    },
    {
      "airport": {
        "Name": "Alpena County Regional Airport",
        "City": "Alpena",
        "State": "Michigan",
        "Latitude": "45.061679223000",
        "Longitude": "-83.432748748000",
        "ShortCode": "APN",
        "Precheck": "False",
        "Airline": null,
        "DST": "True",
        "UTC": "-5",
        "closestWeatherStationID": "KAPN"
      }
    },
    {
      "airport": {
        "Name": "Altoona-Blair County Airport",
        "City": "Martinsburg",
        "State": "Pennsylvania",
        "Latitude": "40.313417748731",
        "Longitude": "-78.296978842599",
        "ShortCode": "AOO",
        "Precheck": "False",
        "Airline": null,
        "DST": "True",
        "UTC": "-5",
        "closestWeatherStationID": "KAOO"
      }
    },
    {
      "airport": {
        "Name": "Antonio B. Won Pat International Airport",
        "City": "Tamuning",
        "State": "Guam",
        "Latitude": "13.506509999000",
        "Longitude": "144.784450004000",
        "ShortCode": "GUM",
        "Precheck": "True",
        "Airline": "Delta Air Lines, United Airlines, Cape Air, Philippine Airlines",
        "DST": "False",
        "UTC": "10",
        "closestWeatherStationID": "PGUM"
      }
    },
    {
      "airport": {
        "Name": "Arcata-Eureka Airport",
        "City": "McKinleyville",
        "State": "California",
        "Latitude": "40.946519976000",
        "Longitude": "-124.100616154000",
        "ShortCode": "ACV",
        "Precheck": "False",
        "Airline": null,
        "DST": "True",
        "UTC": "-8",
        "closestWeatherStationID": "KACV"
      }
    },
    {
      "airport": {
        "Name": "Arnold Palmer Regional Airport",
        "City": "Latrobe",
        "State": "Pennsylvania",
        "Latitude": "40.321178980000",
        "Longitude": "-79.379477008000",
        "ShortCode": "LBE",
        "Precheck": "False",
        "Airline": null,
        "DST": "True",
        "UTC": "-5",
        "closestWeatherStationID": "KLBE"
      }
    },
    {
      "airport": {
        "Name": "Asheville Regional Airport",
        "City": "Fletcher",
        "State": "North Carolina",
        "Latitude": "35.434444400000",
        "Longitude": "-82.542728900000",
        "ShortCode": "AVL",
        "Precheck": "False",
        "Airline": null,
        "DST": "True",
        "UTC": "-5",
        "closestWeatherStationID": "KAVL"
      }
    },
    {
      "airport": {
        "Name": "Aspen-Pitkin County Airport",
        "City": "Aspen",
        "State": "Colorado",
        "Latitude": "39.220158004190",
        "Longitude": "-106.864410977880",
        "ShortCode": "ASE",
        "Precheck": "True",
        "Airline": "American Airlines, Delta Air Lines, United Airlines",
        "DST": "True",
        "UTC": "-7",
        "closestWeatherStationID": "KASE"
      }
    },
    {
      "airport": {
        "Name": "Atlantic City International Airport",
        "City": "Egg Harbor Township",
        "State": "New Jersey",
        "Latitude": "39.350115669000",
        "Longitude": "-74.649595822000",
        "ShortCode": "ACY",
        "Precheck": "False",
        "Airline": null,
        "DST": "True",
        "UTC": "-5",
        "closestWeatherStationID": "KACY"
      }
    },
    {
      "airport": {
        "Name": "Augusta Regional Airport",
        "City": "Augusta",
        "State": "Georgia",
        "Latitude": "33.470968990000",
        "Longitude": "-81.974837649000",
        "ShortCode": "AGS",
        "Precheck": "True",
        "Airline": "American Airlines, Delta Air Lines",
        "DST": "True",
        "UTC": "-5",
        "closestWeatherStationID": "KAGS"
      }
    },
    {
      "airport": {
        "Name": "Augusta State Airport",
        "City": "Augusta",
        "State": "Maine",
        "Latitude": "44.318034937463",
        "Longitude": "-69.793439299783",
        "ShortCode": "AUG",
        "Precheck": "False",
        "Airline": null,
        "DST": "True",
        "UTC": "-5",
        "closestWeatherStationID": "KAUG"
      }
    },
    {
      "airport": {
        "Name": "Austin Straubel International Airport",
        "City": "Green Bay",
        "State": "Wisconsin",
        "Latitude": "44.495634736855",
        "Longitude": "-88.123153134309",
        "ShortCode": "GRB",
        "Precheck": "True",
        "Airline": "American Airlines, Delta Air Lines, United Airlines",
        "DST": "True",
        "UTC": "-6",
        "closestWeatherStationID": "KGRB"
      }
    },
    {
      "airport": {
        "Name": "Austin-Bergstrom International Airport",
        "City": "Austin",
        "State": "Texas",
        "Latitude": "30.202643448338",
        "Longitude": "-97.665435976988",
        "ShortCode": "AUS",
        "Precheck": "True",
        "Airline": "Aeromexico, Air Canada, Alaska Airlines, Allegiant Air, American Airlines, Delta Air Lines, JetBlue Airways, Southwest Airlines, United Airlines, Virgin America",
        "DST": "True",
        "UTC": "-6",
        "closestWeatherStationID": "KAUS"
      }
    },
    {
      "airport": {
        "Name": "Baltimore/Washington International Thurgood Marshall Airport",
        "City": "Baltimore",
        "State": "Maryland",
        "Latitude": "39.188525580592",
        "Longitude": "-76.675824941367",
        "ShortCode": "BWI",
        "Precheck": "True",
        "Airline": "American Airlines, Delta Air Lines, Southwest Airlines, United Airlines, Air Canada, JetBlue Airways, Aeromexico, Sunwing Airlines, Southern Airways Express, Spirit Airlines, Xtra Airways, Contour Aviation",
        "DST": "True",
        "UTC": "-5",
        "closestWeatherStationID": "KBWI"
      }
    },
    {
      "airport": {
        "Name": "Bangor International Airport",
        "City": "Bangor",
        "State": "Maine",
        "Latitude": "44.808814782877",
        "Longitude": "-68.817087415651",
        "ShortCode": "BGR",
        "Precheck": "False",
        "Airline": null,
        "DST": "True",
        "UTC": "-5",
        "closestWeatherStationID": "KBGR"
      }
    },
    {
      "airport": {
        "Name": "Barkley Regional Airport",
        "City": "Paducah",
        "State": "Kentucky",
        "Latitude": "37.061566946858",
        "Longitude": "-88.765620157044",
        "ShortCode": "PAH",
        "Precheck": "False",
        "Airline": null,
        "DST": "True",
        "UTC": "-6",
        "closestWeatherStationID": "KPAH"
      }
    },
    {
      "airport": {
        "Name": "Barnstable Municipal Airport",
        "City": "Hyannis",
        "State": "Massachusetts",
        "Latitude": "41.666275331043",
        "Longitude": "-70.287759679865",
        "ShortCode": "HYA",
        "Precheck": "False",
        "Airline": null,
        "DST": "True",
        "UTC": "-5",
        "closestWeatherStationID": "KHYA"
      }
    },
    {
      "airport": {
        "Name": "Baton Rouge Metropolitan Airport",
        "City": "Baton Rouge",
        "State": "Louisiana",
        "Latitude": "30.534064259959",
        "Longitude": "-91.107608377324",
        "ShortCode": "BTR",
        "Precheck": "True",
        "Airline": "American Airlines, Delta Air Lines, United Airlines",
        "DST": "True",
        "UTC": "-6",
        "closestWeatherStationID": "KBTR"
      }
    },
    {
      "airport": {
        "Name": "Bellingham International Airport",
        "City": "Bellingham",
        "State": "Washington",
        "Latitude": "48.794187525735",
        "Longitude": "-122.530715313560",
        "ShortCode": "BLI",
        "Precheck": "False",
        "Airline": null,
        "DST": "True",
        "UTC": "-8",
        "closestWeatherStationID": "KBLI"
      }
    },
    {
      "airport": {
        "Name": "Bemidji Regional Airport",
        "City": "Bemidji",
        "State": "Minnesota",
        "Latitude": "47.473559650000",
        "Longitude": "-94.880277190000",
        "ShortCode": "BJI",
        "Precheck": "True",
        "Airline": "Delta Air Lines",
        "DST": "True",
        "UTC": "-6",
        "closestWeatherStationID": "KBJI"
      }
    },
    {
      "airport": {
        "Name": "Bert Mooney Airport",
        "City": "Butte",
        "State": "Montana",
        "Latitude": "46.003819101000",
        "Longitude": "-112.534739217000",
        "ShortCode": "BTM",
        "Precheck": "False",
        "Airline": null,
        "DST": "True",
        "UTC": "-7",
        "closestWeatherStationID": "KBTM"
      }
    },
    {
      "airport": {
        "Name": "Bethel Airport",
        "City": "Bethel",
        "State": "Alaska",
        "Latitude": "60.792215514000",
        "Longitude": "-161.755829958000",
        "ShortCode": "BET",
        "Precheck": "False",
        "Airline": null,
        "DST": "True",
        "UTC": "-9",
        "closestWeatherStationID": "PABE"
      }
    },
    {
      "airport": {
        "Name": "Bill and Hillary Clinton National Airport",
        "City": "Little Rock",
        "State": "Arkansas",
        "Latitude": "34.735964509156",
        "Longitude": "-92.267855689288",
        "ShortCode": "LIT",
        "Precheck": "True",
        "Airline": "Allegiant Air, American Airlines, Delta Air Lines, Southwest Airlines, United Airlines",
        "DST": "True",
        "UTC": "-6",
        "closestWeatherStationID": "KLIT"
      }
    },
    {
      "airport": {
        "Name": "Billings Logan International Airport",
        "City": "Billings",
        "State": "Montana",
        "Latitude": "45.803416963623",
        "Longitude": "-108.537811026660",
        "ShortCode": "BIL",
        "Precheck": "True",
        "Airline": "Alaska Airlines, Allegiant Air, Cape Air, Delta Air Lines, United Airlines",
        "DST": "True",
        "UTC": "-7",
        "closestWeatherStationID": "KBIL"
      }
    },
    {
      "airport": {
        "Name": "Birmingham-Shuttlesworth International Airport",
        "City": "Birmingham",
        "State": "Alabama",
        "Latitude": "33.560010450423",
        "Longitude": "-86.749217547651",
        "ShortCode": "BHM",
        "Precheck": "True",
        "Airline": "American Airlines, Delta Air Lines, Southwest Airlines, United Airlines, Virgin America",
        "DST": "True",
        "UTC": "-6",
        "closestWeatherStationID": "KBHM"
      }
    },
    {
      "airport": {
        "Name": "Bishop International Airport",
        "City": "Flint",
        "State": "Michigan",
        "Latitude": "42.974424944357",
        "Longitude": "-83.736081364263",
        "ShortCode": "FNT",
        "Precheck": "True",
        "Airline": "Allegiant Air, American Airlines, Delta Air Lines, Southwest Airlines, United Airlines",
        "DST": "True",
        "UTC": "-5",
        "closestWeatherStationID": "KFNT"
      }
    },
    {
      "airport": {
        "Name": "Bismarck Municipal Airport",
        "City": "Bismarck",
        "State": "North Dakota",
        "Latitude": "46.820778127310",
        "Longitude": "-100.769257918620",
        "ShortCode": "BIS",
        "Precheck": "True",
        "Airline": "Allegiant Air",
        "DST": "True",
        "UTC": "-6",
        "closestWeatherStationID": "KBIS"
      }
    },
    {
      "airport": {
        "Name": "Blue Grass Airport",
        "City": "Lexington",
        "State": "Kentucky",
        "Latitude": "38.038147215623",
        "Longitude": "-84.598917529120",
        "ShortCode": "LEX",
        "Precheck": "True",
        "Airline": "Allegiant Air, American Airlines, Delta Air Lines, United Airlines",
        "DST": "True",
        "UTC": "-5",
        "closestWeatherStationID": "KLEX"
      }
    },
    {
      "airport": {
        "Name": "Boise Airport",
        "City": "Boise",
        "State": "Idaho",
        "Latitude": "43.569172670384",
        "Longitude": "-116.221508797290",
        "ShortCode": "BOI",
        "Precheck": "True",
        "Airline": "Aeromexico, Alaska Airlines, Allegiant Air, Delta Air Lines, Southwest Airlines, United Airlines",
        "DST": "True",
        "UTC": "-7",
        "closestWeatherStationID": "KBOI"
      }
    },
    {
      "airport": {
        "Name": "Bowling Green-Warren County Regional Airport",
        "City": "Bowling Green",
        "State": "Kentucky",
        "Latitude": "36.964527800000",
        "Longitude": "-86.419666700000",
        "ShortCode": "BWG",
        "Precheck": "False",
        "Airline": null,
        "DST": "True",
        "UTC": "-6",
        "closestWeatherStationID": "KBWG"
      }
    },
    {
      "airport": {
        "Name": "Bozeman Yellowstone International Airport",
        "City": "Belgrade",
        "State": "Montana",
        "Latitude": "45.777594156846",
        "Longitude": "-111.160301813980",
        "ShortCode": "BZN",
        "Precheck": "True",
        "Airline": "Alaska Airlines, Allegiant Air, Delta Air Lines, United Airlines",
        "DST": "True",
        "UTC": "-7",
        "closestWeatherStationID": "KBZN"
      }
    },
    {
      "airport": {
        "Name": "Bradford Regional Airport",
        "City": "Lewis Run",
        "State": "Pennsylvania",
        "Latitude": "41.870899930000",
        "Longitude": "-78.661417241000",
        "ShortCode": "BFD",
        "Precheck": "False",
        "Airline": null,
        "DST": "True",
        "UTC": "-5",
        "closestWeatherStationID": "KBFD"
      }
    },
    {
      "airport": {
        "Name": "Bradley International Airport",
        "City": "Windsor Locks",
        "State": "Connecticut",
        "Latitude": "41.925474924729",
        "Longitude": "-72.651755219827",
        "ShortCode": "BDL",
        "Precheck": "True",
        "Airline": "Aeromexico, Air Canada, American Airlines, Delta Air Lines, JetBlue Airways, OneJet, Southwest Airlines, United Airlines",
        "DST": "True",
        "UTC": "-5",
        "closestWeatherStationID": "KBDL"
      }
    },
    {
      "airport": {
        "Name": "Brainerd Lakes Regional Airport ",
        "City": "Brainerd",
        "State": "Minnesota",
        "Latitude": "46.392994769594",
        "Longitude": "-94.140965876273",
        "ShortCode": "BRD",
        "Precheck": "True",
        "Airline": "Delta Air Lines",
        "DST": "True",
        "UTC": "-6",
        "closestWeatherStationID": "KBRD"
      }
    },
    {
      "airport": {
        "Name": "Branson Airport",
        "City": "Hollister",
        "State": "Missouri",
        "Latitude": "36.532082500000",
        "Longitude": "-93.200544400000",
        "ShortCode": "BKG",
        "Precheck": "False",
        "Airline": null,
        "DST": "True",
        "UTC": "-6",
        "closestWeatherStationID": "KBBG"
      }
    },
    {
      "airport": {
        "Name": "Brownsville/South Padre Island International Airport",
        "City": "Brownsville",
        "State": "Texas",
        "Latitude": "25.906770293815",
        "Longitude": "-97.432381593435",
        "ShortCode": "BRO",
        "Precheck": "True",
        "Airline": "American Airlines, United Airlines, Allegiant Air",
        "DST": "True",
        "UTC": "-6",
        "closestWeatherStationID": "KBRO"
      }
    },
    {
      "airport": {
        "Name": "Brunswick Golden Isles Airport",
        "City": "Brunswick",
        "State": "Georgia",
        "Latitude": "31.149948999000",
        "Longitude": "-81.491486050000",
        "ShortCode": "BQK",
        "Precheck": "False",
        "Airline": null,
        "DST": "True",
        "UTC": "-5",
        "closestWeatherStationID": "KBQK"
      }
    },
    {
      "airport": {
        "Name": "Buffalo Niagara International Airport",
        "City": "Buffalo",
        "State": "New York",
        "Latitude": "42.931361919018",
        "Longitude": "-78.732445521343",
        "ShortCode": "BUF",
        "Precheck": "True",
        "Airline": "American Airlines, Delta Air Lines, JetBlue Airways, Southwest Airlines, United Airlines",
        "DST": "True",
        "UTC": "-5",
        "closestWeatherStationID": "KBUF"
      }
    },
    {
      "airport": {
        "Name": "Burlington International Airport",
        "City": "South Burlington",
        "State": "Vermont",
        "Latitude": "44.468385071115",
        "Longitude": "-73.156459329634",
        "ShortCode": "BTV",
        "Precheck": "True",
        "Airline": "Allegiant Air, Delta Air Lines, JetBlue Airways, United Airlines",
        "DST": "True",
        "UTC": "-5",
        "closestWeatherStationID": "KBTV"
      }
    },
    {
      "airport": {
        "Name": "Canyonlands Field Airport",
        "City": "Moab",
        "State": "Utah",
        "Latitude": "38.573318116000",
        "Longitude": "-109.549839151000",
        "ShortCode": "CNY",
        "Precheck": "False",
        "Airline": null,
        "DST": "True",
        "UTC": "-7",
        "closestWeatherStationID": "KCNY"
      }
    },
    {
      "airport": {
        "Name": "Cape Girardeau Regional Airport",
        "City": "Scott City",
        "State": "Missouri",
        "Latitude": "37.207233177470",
        "Longitude": "-89.513106027920",
        "ShortCode": "CGI",
        "Precheck": "False",
        "Airline": null,
        "DST": "True",
        "UTC": "-6",
        "closestWeatherStationID": "KCGI"
      }
    },
    {
      "airport": {
        "Name": "Capital Region International Airport",
        "City": "Lansing",
        "State": "Michigan",
        "Latitude": "42.772789259618",
        "Longitude": "-84.588761552703",
        "ShortCode": "LAN",
        "Precheck": "True",
        "Airline": "Delta Air Lines, Miami Air International, Sun Country Airlines, United Airlines",
        "DST": "True",
        "UTC": "-5",
        "closestWeatherStationID": "KLAN"
      }
    },
    {
      "airport": {
        "Name": "Casper-Natrona County International Airport",
        "City": "Casper",
        "State": "Wyoming",
        "Latitude": "42.896933149746",
        "Longitude": "-106.464358427700",
        "ShortCode": "CPR",
        "Precheck": "False",
        "Airline": null,
        "DST": "True",
        "UTC": "-7",
        "closestWeatherStationID": "KCPR"
      }
    },
    {
      "airport": {
        "Name": "Cedar City Municipal Airport",
        "City": "Cedar City",
        "State": "Utah",
        "Latitude": "37.700972200000",
        "Longitude": "-113.098861100000",
        "ShortCode": "CDC",
        "Precheck": "False",
        "Airline": null,
        "DST": "True",
        "UTC": "-7",
        "closestWeatherStationID": "KCDC"
      }
    },
    {
      "airport": {
        "Name": "Central Illinois Regional Airport",
        "City": "Bloominigton",
        "State": "Illinois",
        "Latitude": "40.483762225248",
        "Longitude": "-88.913828146951",
        "ShortCode": "BMI",
        "Precheck": "True",
        "Airline": "Allegiant Air, American Airlines, Delta Air Lines",
        "DST": "True",
        "UTC": "-6",
        "closestWeatherStationID": "KBMI"
      }
    },
    {
      "airport": {
        "Name": "Central Nebraska Regional Airport",
        "City": "Grand Island",
        "State": "Nebraska",
        "Latitude": "40.969413335958",
        "Longitude": "-98.320511094611",
        "ShortCode": "GRI",
        "Precheck": "False",
        "Airline": null,
        "DST": "True",
        "UTC": "-6",
        "closestWeatherStationID": "KGRI"
      }
    },
    {
      "airport": {
        "Name": "Central Wisconsin Airport",
        "City": "Mosinee",
        "State": "Wisconsin",
        "Latitude": "44.784348690641",
        "Longitude": "-89.673835111400",
        "ShortCode": "CWA",
        "Precheck": "True",
        "Airline": "American Airlines, Delta Air Lines, United Airlines",
        "DST": "True",
        "UTC": "-6",
        "closestWeatherStationID": "KCWA"
      }
    },
    {
      "airport": {
        "Name": "Chadron Municipal Airport",
        "City": "Chadron",
        "State": "Nebraska",
        "Latitude": "42.829419210000",
        "Longitude": "-102.999907569000",
        "ShortCode": "CDR",
        "Precheck": "False",
        "Airline": null,
        "DST": "True",
        "UTC": "-7",
        "closestWeatherStationID": "KCDR"
      }
    },
    {
      "airport": {
        "Name": "Charles M. Schulzâ€“Sonoma County Airport",
        "City": "Santa Rosa",
        "State": "California",
        "Latitude": "38.509694400000",
        "Longitude": "-122.812888900000",
        "ShortCode": "STS",
        "Precheck": "False",
        "Airline": null,
        "DST": "True",
        "UTC": "-8",
        "closestWeatherStationID": "KSTS"
      }
    },
    {
      "airport": {
        "Name": "Charleston International Airport",
        "City": "Charleston",
        "State": "South Carolina",
        "Latitude": "32.883779741243",
        "Longitude": "-80.035733838545",
        "ShortCode": "CHS",
        "Precheck": "True",
        "Airline": "Alaska Airlines, American Airlines, Delta Air Lines, JetBlue Airways, Southwest Airlines, United Airlines",
        "DST": "True",
        "UTC": "-5",
        "closestWeatherStationID": "KCHS"
      }
    },
    {
      "airport": {
        "Name": "Charlotte Douglas International Airport",
        "City": "Charlotte",
        "State": "North Carolina",
        "Latitude": "35.229050522964",
        "Longitude": "-80.941900457439",
        "ShortCode": "CLT",
        "Precheck": "True",
        "Airline": "American Airlines, Delta Air Lines, Southwest Airlines, United Airlines, Air Canada, JetBlue Airways, Lufthansa, Frontier Airlines",
        "DST": "True",
        "UTC": "-5",
        "closestWeatherStationID": "KCLT"
      }
    },
    {
      "airport": {
        "Name": "Charlottesville-Albemarle Airport",
        "City": "Charlottesville",
        "State": "Virginia",
        "Latitude": "38.029307401000",
        "Longitude": "-78.476677138000",
        "ShortCode": "CHO",
        "Precheck": "True",
        "Airline": "American Airlines, Delta Air Lines, United Airlines",
        "DST": "True",
        "UTC": "-5",
        "closestWeatherStationID": "KCHO"
      }
    },
    {
      "airport": {
        "Name": "Chattanooga Metropolitan Airport",
        "City": "Chattanooga",
        "State": "Tennessee",
        "Latitude": "35.032797209625",
        "Longitude": "-85.194531465054",
        "ShortCode": "CHA",
        "Precheck": "False",
        "Airline": null,
        "DST": "True",
        "UTC": "-5",
        "closestWeatherStationID": "KCHA"
      }
    },
    {
      "airport": {
        "Name": "Chautauqua County-Jamestown Airport",
        "City": "Jamestown",
        "State": "New York",
        "Latitude": "42.096995862000",
        "Longitude": "-79.235327802000",
        "ShortCode": "JHW",
        "Precheck": "False",
        "Airline": null,
        "DST": "True",
        "UTC": "-5",
        "closestWeatherStationID": "KJHW"
      }
    },
    {
      "airport": {
        "Name": "Cherry Capital Airport",
        "City": "Traverse City",
        "State": "Michigan",
        "Latitude": "44.845478584170",
        "Longitude": "-85.545499346217",
        "ShortCode": "TVC",
        "Precheck": "True",
        "Airline": "American Airlines, Delta Air Lines, United Airlines",
        "DST": "True",
        "UTC": "-5",
        "closestWeatherStationID": "KTVC"
      }
    },
    {
      "airport": {
        "Name": "Cheyenne Regional Airport",
        "City": "Cheyenne",
        "State": "Wyoming",
        "Latitude": "41.139975805000",
        "Longitude": "-104.820245939000",
        "ShortCode": "CYS",
        "Precheck": "False",
        "Airline": null,
        "DST": "True",
        "UTC": "-7",
        "closestWeatherStationID": "KCYS"
      }
    },
    {
      "airport": {
        "Name": "Chicago Midway International Airport",
        "City": "Chicago",
        "State": "Illinois",
        "Latitude": "41.787069071182",
        "Longitude": "-87.741488861021",
        "ShortCode": "MDW",
        "Precheck": "True",
        "Airline": "Delta Air Lines, Southwest Airlines, Sun Country Airlines",
        "DST": "True",
        "UTC": "-6",
        "closestWeatherStationID": "KMDW"
      }
    },
    {
      "airport": {
        "Name": "Chicago O'Hare International Airport",
        "City": "Chicago",
        "State": "Illinois",
        "Latitude": "41.995701093831",
        "Longitude": "-87.885990897661",
        "ShortCode": "ORD",
        "Precheck": "True",
        "Airline": "American Airlines, Delta Air Lines, United Airlines, Virgin America, Air Canada, Alaska Airlines, JetBlue Airways, WestJet, Aeromexico, Etihad Airways, Lufthansa, Frontier Airlines, Avianca, Virgin Atlantic, Emirates, Spirit Airlines, Turkish Airlines, Copa Airlines, Korean Air, All Nippon Airways, Finnair, Cathay Pacific Airways, Air France",
        "DST": "True",
        "UTC": "-6",
        "closestWeatherStationID": "KORD"
      }
    },
    {
      "airport": {
        "Name": "Chicago Rockford International Airport",
        "City": "Rockford",
        "State": "Illinois",
        "Latitude": "42.202330075374",
        "Longitude": "-89.094765879941",
        "ShortCode": "RFD",
        "Precheck": "True",
        "Airline": "Allegiant Air",
        "DST": "True",
        "UTC": "-6",
        "closestWeatherStationID": "KRFD"
      }
    },
    {
      "airport": {
        "Name": "Chippewa County International Airport",
        "City": "Kincheloe",
        "State": "Michigan",
        "Latitude": "42.019656726000",
        "Longitude": "-86.052137257000",
        "ShortCode": "CIU",
        "Precheck": "False",
        "Airline": null,
        "DST": "True",
        "UTC": "-5",
        "closestWeatherStationID": "KCIU"
      }
    },
    {
      "airport": {
        "Name": "Chippewa Valley Regional Airport",
        "City": "Eau Claire",
        "State": "Wisconsin",
        "Latitude": "44.860937000243",
        "Longitude": "-91.478319150008",
        "ShortCode": "EAU",
        "Precheck": "True",
        "Airline": "United Airlines",
        "DST": "True",
        "UTC": "-6",
        "closestWeatherStationID": "KEAU"
      }
    },
    {
      "airport": {
        "Name": "Cincinnati/Northern Kentucky International Airport",
        "City": "Hebron",
        "State": "Kentucky",
        "Latitude": "39.058072489455",
        "Longitude": "-84.660809429011",
        "ShortCode": "CVG",
        "Precheck": "True",
        "Airline": "Aeromexico, Air Canada, Allegiant Air, American Airlines, Delta Air Lines, Frontier Airlines, Sunwing Airlines, United Airlines, Xtra Airways",
        "DST": "True",
        "UTC": "-5",
        "closestWeatherStationID": "KCVG"
      }
    },
    {
      "airport": {
        "Name": "Cleveland Hopkins International Airport",
        "City": "Cleveland",
        "State": "Ohio",
        "Latitude": "41.411542693342",
        "Longitude": "-81.833600376855",
        "ShortCode": "CLE",
        "Precheck": "True",
        "Airline": "Aeromexico, Air Canada, American Airlines, Delta Air Lines, Frontier Airlines, Southwest Airlines, Spirit Airlines, United Airlines, Xtra Airways",
        "DST": "True",
        "UTC": "-5",
        "closestWeatherStationID": "KCLE"
      }
    },
    {
      "airport": {
        "Name": "Coastal Carolina Regional Airport",
        "City": "New Bern",
        "State": "North Carolina",
        "Latitude": "35.108486147000",
        "Longitude": "-77.044107790000",
        "ShortCode": "EWN",
        "Precheck": "False",
        "Airline": null,
        "DST": "True",
        "UTC": "-5",
        "closestWeatherStationID": "KEWN"
      }
    },
    {
      "airport": {
        "Name": "Colorado Springs Airport",
        "City": "Colorado Springs",
        "State": "Colorado",
        "Latitude": "38.781092633419",
        "Longitude": "-104.720739617540",
        "ShortCode": "COS",
        "Precheck": "True",
        "Airline": "Alaska Airlines, Allegiant Air, American Airlines, Delta Air Lines, United Airlines",
        "DST": "True",
        "UTC": "-7",
        "closestWeatherStationID": "KCOS"
      }
    },
    {
      "airport": {
        "Name": "Columbia Metropolitan Airport",
        "City": "West Columbia",
        "State": "South Carolina",
        "Latitude": "33.946946652967",
        "Longitude": "-81.125043008827",
        "ShortCode": "CAE",
        "Precheck": "True",
        "Airline": "American Airlines, Delta Air Lines, United Airlines",
        "DST": "True",
        "UTC": "-5",
        "closestWeatherStationID": "KCAE"
      }
    },
    {
      "airport": {
        "Name": "Columbia Regional Airport",
        "City": "Columbia",
        "State": "Missouri",
        "Latitude": "38.951707531000",
        "Longitude": "-92.334065686000",
        "ShortCode": "COU",
        "Precheck": "False",
        "Airline": null,
        "DST": "True",
        "UTC": "-6",
        "closestWeatherStationID": "KCOU"
      }
    },
    {
      "airport": {
        "Name": "Columbus Metropolitan Airport",
        "City": "Columbus",
        "State": "Georgia",
        "Latitude": "32.460979634000",
        "Longitude": "-84.987707233000",
        "ShortCode": "CSG",
        "Precheck": "False",
        "Airline": null,
        "DST": "True",
        "UTC": "-5",
        "closestWeatherStationID": "KCSG"
      }
    },
    {
      "airport": {
        "Name": "Concord Regional Airport",
        "City": "Concord",
        "State": "North Carolina",
        "Latitude": "35.387775000000",
        "Longitude": "-80.709136100000",
        "ShortCode": "USA",
        "Precheck": "False",
        "Airline": null,
        "DST": "True",
        "UTC": "-5",
        "closestWeatherStationID": "KJQF"
      }
    },
    {
      "airport": {
        "Name": "Corpus Christi International Airport",
        "City": "Corpus Christi",
        "State": "Texas",
        "Latitude": "27.774746297105",
        "Longitude": "-97.501965148372",
        "ShortCode": "CRP",
        "Precheck": "True",
        "Airline": "American Airlines, Southwest Airlines, United Airlines",
        "DST": "True",
        "UTC": "-6",
        "closestWeatherStationID": "KCRP"
      }
    },
    {
      "airport": {
        "Name": "Cortez Municipal Airport",
        "City": "Cortez",
        "State": "Colorado",
        "Latitude": "37.304353557971",
        "Longitude": "-108.630843332850",
        "ShortCode": "CEZ",
        "Precheck": "False",
        "Airline": null,
        "DST": "True",
        "UTC": "-7",
        "closestWeatherStationID": "KCEZ"
      }
    },
    {
      "airport": {
        "Name": "Cyril E. King Airport",
        "City": "St. Thomas",
        "State": "Virgin Islands",
        "Latitude": "18.346040001000",
        "Longitude": "-64.932669999000",
        "ShortCode": "STT",
        "Precheck": "True",
        "Airline": "American Airlines, Cape Air, Delta Air Lines, InterCaribbean Airways, JetBlue Airways, Seaborne Airlines, Spirit Airlines, Sun Country Airlines, United Airlines",
        "DST": "False",
        "UTC": "-4",
        "closestWeatherStationID": "TIST"
      }
    },
    {
      "airport": {
        "Name": "Dallas Love Field Airport",
        "City": "Dallas",
        "State": "Texas",
        "Latitude": "32.843877099949",
        "Longitude": "-96.849704063391",
        "ShortCode": "DAL",
        "Precheck": "True",
        "Airline": "Southwest Airlines, Virgin America",
        "DST": "True",
        "UTC": "-6",
        "closestWeatherStationID": "KDAL"
      }
    },
    {
      "airport": {
        "Name": "Dallas/Fort Worth International Airport",
        "City": "DFW Airport",
        "State": "Texas",
        "Latitude": "32.882869118316",
        "Longitude": "-97.062780145287",
        "ShortCode": "DFW",
        "Precheck": "True",
        "Airline": "American Airlines, Delta Air Lines, United Airlines, Air Canada, Alaska Airlines, JetBlue Airways, Sun Country Airlines, WestJet, Aeromexico, Etihad Airways, Lufthansa, Avianca, Emirates, Boutique Airlines, Spirit Airlines, Korean Air",
        "DST": "True",
        "UTC": "-6",
        "closestWeatherStationID": "KDFW"
      }
    },
    {
      "airport": {
        "Name": "Dane County Regional Airport",
        "City": "Madison",
        "State": "Wisconsin",
        "Latitude": "43.135149390033",
        "Longitude": "-89.346455580560",
        "ShortCode": "MSN",
        "Precheck": "True",
        "Airline": "American Airlines, Delta Air Lines, United Airlines",
        "DST": "True",
        "UTC": "-6",
        "closestWeatherStationID": "KMSN"
      }
    },
    {
      "airport": {
        "Name": "Dawson Community Airport",
        "City": "Glendive",
        "State": "Montana",
        "Latitude": "47.122877510390",
        "Longitude": "-104.778708533470",
        "ShortCode": "GDV",
        "Precheck": "False",
        "Airline": null,
        "DST": "True",
        "UTC": "-7",
        "closestWeatherStationID": "KGDV"
      }
    },
    {
      "airport": {
        "Name": "Dayton International Airport",
        "City": "Dayton",
        "State": "Ohio",
        "Latitude": "39.896308183577",
        "Longitude": "-84.225373305633",
        "ShortCode": "DAY",
        "Precheck": "True",
        "Airline": "Allegiant Air, American Airlines, Delta Air Lines, Southwest Airlines, United Airlines",
        "DST": "True",
        "UTC": "-5",
        "closestWeatherStationID": "KDAY"
      }
    },
    {
      "airport": {
        "Name": "Daytona Beach International Airport ",
        "City": "Daytona Beach",
        "State": "Florida",
        "Latitude": "29.193775701489",
        "Longitude": "-81.052464006408",
        "ShortCode": "DAB",
        "Precheck": "True",
        "Airline": "American Airlines, Delta Air Lines",
        "DST": "True",
        "UTC": "-5",
        "closestWeatherStationID": "KDAB"
      }
    },
    {
      "airport": {
        "Name": "Deadhorse Airport",
        "City": "Prudhoe Bay",
        "State": "Alaska",
        "Latitude": "70.255276093001",
        "Longitude": "-148.337219965000",
        "ShortCode": "SCC",
        "Precheck": "False",
        "Airline": null,
        "DST": "True",
        "UTC": "-9",
        "closestWeatherStationID": "PASC"
      }
    },
    {
      "airport": {
        "Name": "Decatur Airport",
        "City": "Decatur",
        "State": "Illinois",
        "Latitude": "39.840306661000",
        "Longitude": "-88.954798123000",
        "ShortCode": "DEC",
        "Precheck": "False",
        "Airline": null,
        "DST": "True",
        "UTC": "-6",
        "closestWeatherStationID": "KDEC"
      }
    },
    {
      "airport": {
        "Name": "Del Norte County Airport",
        "City": "Crescent City",
        "State": "California",
        "Latitude": "41.755948633000",
        "Longitude": "-124.201749178000",
        "ShortCode": "CEC",
        "Precheck": "False",
        "Airline": null,
        "DST": "True",
        "UTC": "-8",
        "closestWeatherStationID": "KCEC"
      }
    },
    {
      "airport": {
        "Name": "Del Rio International Airport",
        "City": "Del Rio",
        "State": "Texas",
        "Latitude": "29.362725629000",
        "Longitude": "-100.896756180000",
        "ShortCode": "DRT",
        "Precheck": "False",
        "Airline": null,
        "DST": "True",
        "UTC": "-6",
        "closestWeatherStationID": "KDRT"
      }
    },
    {
      "airport": {
        "Name": "Delta County Airport",
        "City": "Escanaba",
        "State": "Michigan",
        "Latitude": "45.745249551000",
        "Longitude": "-87.064578894000",
        "ShortCode": "ESC",
        "Precheck": "False",
        "Airline": null,
        "DST": "True",
        "UTC": "-5",
        "closestWeatherStationID": "KESC"
      }
    },
    {
      "airport": {
        "Name": "Denver International Airport",
        "City": "Denver",
        "State": "Colorado",
        "Latitude": "39.838826295498",
        "Longitude": "-104.671838737570",
        "ShortCode": "DEN",
        "Precheck": "True",
        "Airline": "Aeromexico, Air Canada, Alaska Airlines, American Airlines, Boutique Airlines, Delta Air Lines, Frontier Airlines, JetBlue Airways, Key Lime Air, Lufthansa, Southwest Airlines, Spirit Airlines, Sun Country Airlines, United Airlines",
        "DST": "True",
        "UTC": "-7",
        "closestWeatherStationID": "KDEN"
      }
    },
    {
      "airport": {
        "Name": "Des Moines International Airport",
        "City": "Des Moines",
        "State": "Iowa",
        "Latitude": "41.531680334881",
        "Longitude": "-93.648097019061",
        "ShortCode": "DSM",
        "Precheck": "True",
        "Airline": "Allegiant Air, American Airlines, Delta Air Lines, Southwest Airlines, United Airlines",
        "DST": "True",
        "UTC": "-6",
        "closestWeatherStationID": "KDSM"
      }
    },
    {
      "airport": {
        "Name": "Destin-Fort Walton Beach Airport",
        "City": "Eglin AFB",
        "State": "Florida",
        "Latitude": "30.459066820000",
        "Longitude": "-86.550256545000",
        "ShortCode": "VPS",
        "Precheck": "True",
        "Airline": "American Airlines, Delta Air Lines, United Airlines, Allegiant Air",
        "DST": "True",
        "UTC": "-6",
        "closestWeatherStationID": "KVPS"
      }
    },
    {
      "airport": {
        "Name": "Detroit Metropolitan Airport",
        "City": "Detroit",
        "State": "Michigan",
        "Latitude": "42.207176740415",
        "Longitude": "-83.356446112597",
        "ShortCode": "DTW",
        "Precheck": "True",
        "Airline": "American Airlines, Delta Air Lines, Southwest Airlines, United Airlines, Air Canada, JetBlue Airways, Aeromexico, Lufthansa, Virgin Atlantic, Spirit Airlines, Xtra Airways, Air France",
        "DST": "True",
        "UTC": "-5",
        "closestWeatherStationID": "KDTW"
      }
    },
    {
      "airport": {
        "Name": "Devils Lake Regional Airport",
        "City": "Devils Lake",
        "State": "North Dakota",
        "Latitude": "48.112777414001",
        "Longitude": "-98.865119004000",
        "ShortCode": "DVL",
        "Precheck": "True",
        "Airline": "United Airlines",
        "DST": "True",
        "UTC": "-6",
        "closestWeatherStationID": "KDVL"
      }
    },
    {
      "airport": {
        "Name": "Dickinson Theodore Roosevelt Regional Airport",
        "City": "Dickinson",
        "State": "North Dakota",
        "Latitude": "46.879175906000",
        "Longitude": "-102.789616674000",
        "ShortCode": "DIK",
        "Precheck": "True",
        "Airline": "United Airlines",
        "DST": "True",
        "UTC": "-7",
        "closestWeatherStationID": "KDIK"
      }
    },
    {
      "airport": {
        "Name": "Dillingham Airport",
        "City": "Dillingham",
        "State": "Alaska",
        "Latitude": "59.039715562000",
        "Longitude": "-158.457496711000",
        "ShortCode": "DLG",
        "Precheck": "False",
        "Airline": null,
        "DST": "True",
        "UTC": "-9",
        "closestWeatherStationID": "PADL"
      }
    },
    {
      "airport": {
        "Name": "Dodge City Regional Airport",
        "City": "Dodge City",
        "State": "Kansas",
        "Latitude": "37.752797944000",
        "Longitude": "-100.017079758000",
        "ShortCode": "DDC",
        "Precheck": "False",
        "Airline": null,
        "DST": "True",
        "UTC": "-6",
        "closestWeatherStationID": "KDDC"
      }
    },
    {
      "airport": {
        "Name": "Dothan Regional Airport",
        "City": "Dothan",
        "State": "Alabama",
        "Latitude": "31.223229494000",
        "Longitude": "-85.390488983000",
        "ShortCode": "DHN",
        "Precheck": "False",
        "Airline": null,
        "DST": "True",
        "UTC": "-6",
        "closestWeatherStationID": "KDHN"
      }
    },
    {
      "airport": {
        "Name": "DuBois Regional Airport",
        "City": "Reynoldsville",
        "State": "Pennsylvania",
        "Latitude": "41.097009119000",
        "Longitude": "-78.888638074000",
        "ShortCode": "DUJ",
        "Precheck": "False",
        "Airline": null,
        "DST": "True",
        "UTC": "-5",
        "closestWeatherStationID": "KDUJ"
      }
    },
    {
      "airport": {
        "Name": "Dubuque Regional Airport",
        "City": "Dubuque",
        "State": "Iowa",
        "Latitude": "42.500556043000",
        "Longitude": "-90.664569867000",
        "ShortCode": "DBQ",
        "Precheck": "False",
        "Airline": null,
        "DST": "True",
        "UTC": "-6",
        "closestWeatherStationID": "KDBQ"
      }
    },
    {
      "airport": {
        "Name": "Duluth international Airport",
        "City": "Duluth",
        "State": "Minnesota",
        "Latitude": "46.783266918000",
        "Longitude": "-92.106579377000",
        "ShortCode": "DLH",
        "Precheck": "True",
        "Airline": "Delta Air Lines, United Airlines, Sun Country Airlines",
        "DST": "True",
        "UTC": "-6",
        "closestWeatherStationID": "KDLH"
      }
    },
    {
      "airport": {
        "Name": "Durango-La Plata County Airport",
        "City": "Durango",
        "State": "Colorado",
        "Latitude": "37.159183039966",
        "Longitude": "-107.752524057440",
        "ShortCode": "DRO",
        "Precheck": "False",
        "Airline": null,
        "DST": "True",
        "UTC": "-7",
        "closestWeatherStationID": "KDRO"
      }
    },
    {
      "airport": {
        "Name": "Eagle County Regional Airport",
        "City": "Gypsum",
        "State": "Colorado",
        "Latitude": "39.646927325000",
        "Longitude": "-106.951706755000",
        "ShortCode": "EGE",
        "Precheck": "True",
        "Airline": "Air Canada, American Airlines, Delta Air Lines, United Airlines",
        "DST": "True",
        "UTC": "-7",
        "closestWeatherStationID": "KEGE"
      }
    },
    {
      "airport": {
        "Name": "East Texas Regional Airport",
        "City": "Longview",
        "State": "Texas",
        "Latitude": "32.500697609000",
        "Longitude": "-94.740488097000",
        "ShortCode": "GGG",
        "Precheck": "True",
        "Airline": "American Airlines",
        "DST": "True",
        "UTC": "-6",
        "closestWeatherStationID": "KGGG"
      }
    },
    {
      "airport": {
        "Name": "Easterwood Airport",
        "City": "College Station",
        "State": "Texas",
        "Latitude": "30.627977328000",
        "Longitude": "-96.334408624000",
        "ShortCode": "CLL",
        "Precheck": "False",
        "Airline": null,
        "DST": "True",
        "UTC": "-6",
        "closestWeatherStationID": "KCLL"
      }
    },
    {
      "airport": {
        "Name": "El Paso International Airport",
        "City": "El Paso",
        "State": "Texas",
        "Latitude": "31.798929786482",
        "Longitude": "-106.394893872850",
        "ShortCode": "ELP",
        "Precheck": "True",
        "Airline": "American Airlines, Delta Air Lines, Southwest Airlines, United Airlines",
        "DST": "True",
        "UTC": "-7",
        "closestWeatherStationID": "KELP"
      }
    },
    {
      "airport": {
        "Name": "Elko Regional Airport",
        "City": "Elko",
        "State": "Nevada",
        "Latitude": "40.832419103000",
        "Longitude": "-115.763117173000",
        "ShortCode": "EKO",
        "Precheck": "False",
        "Airline": null,
        "DST": "True",
        "UTC": "-8",
        "closestWeatherStationID": "KEKO"
      }
    },
    {
      "airport": {
        "Name": "Elmira Corning Regional Airport",
        "City": "Horseheads",
        "State": "New York",
        "Latitude": "42.162768365269",
        "Longitude": "-76.898127401058",
        "ShortCode": "ELM",
        "Precheck": "False",
        "Airline": null,
        "DST": "True",
        "UTC": "-5",
        "closestWeatherStationID": "KELM"
      }
    },
    {
      "airport": {
        "Name": "Eppley Airfield",
        "City": "Omaha",
        "State": "Nebraska",
        "Latitude": "41.295907518418",
        "Longitude": "-95.900550812969",
        "ShortCode": "OMA",
        "Precheck": "True",
        "Airline": "Alaska Airlines, Allegiant Air, American Airlines, Delta Air Lines, Southwest Airlines, United Airlines",
        "DST": "True",
        "UTC": "-6",
        "closestWeatherStationID": "KOMA"
      }
    },
    {
      "airport": {
        "Name": "Erie International Airport",
        "City": "Erie",
        "State": "Pennsylvania",
        "Latitude": "42.129217502000",
        "Longitude": "-80.085059382000",
        "ShortCode": "ERI",
        "Precheck": "False",
        "Airline": null,
        "DST": "True",
        "UTC": "-5",
        "closestWeatherStationID": "KERI"
      }
    },
    {
      "airport": {
        "Name": "Eugene Airport",
        "City": "Eugene",
        "State": "Oregon",
        "Latitude": "44.118415644268",
        "Longitude": "-123.212605537320",
        "ShortCode": "EUG",
        "Precheck": "False",
        "Airline": "Allegiant Air",
        "DST": "True",
        "UTC": "-8",
        "closestWeatherStationID": "KEUG"
      }
    },
    {
      "airport": {
        "Name": "Evansville Regional Airport",
        "City": "Evansville",
        "State": "Indiana",
        "Latitude": "37.974759502000",
        "Longitude": "-87.555847042000",
        "ShortCode": "EVV",
        "Precheck": "False",
        "Airline": null,
        "DST": "True",
        "UTC": "-6",
        "closestWeatherStationID": "KEVV"
      }
    },
    {
      "airport": {
        "Name": "Fairbanks International Airport",
        "City": "Fairbanks",
        "State": "Alaska",
        "Latitude": "64.818103843019",
        "Longitude": "-147.867476387120",
        "ShortCode": "FAI",
        "Precheck": "True",
        "Airline": "Delta Air Lines, Alaska Airlines",
        "DST": "True",
        "UTC": "-9",
        "closestWeatherStationID": "PAFA"
      }
    },
    {
      "airport": {
        "Name": "Falls International Airport",
        "City": "International Falls",
        "State": "Minnesota",
        "Latitude": "48.601047076000",
        "Longitude": "-93.410977602000",
        "ShortCode": "INL",
        "Precheck": "True",
        "Airline": "Delta Air Lines, Sun Country Airlines",
        "DST": "True",
        "UTC": "-6",
        "closestWeatherStationID": "KINL"
      }
    },
    {
      "airport": {
        "Name": "Fayetteville Regional Airport ",
        "City": "Fayetteville",
        "State": "North Carolina",
        "Latitude": "35.052659602000",
        "Longitude": "-78.878356486000",
        "ShortCode": "FAY",
        "Precheck": "False",
        "Airline": null,
        "DST": "True",
        "UTC": "-5",
        "closestWeatherStationID": "KFAY"
      }
    },
    {
      "airport": {
        "Name": "Flagstaff Pulliam Airport",
        "City": "Flagstaff",
        "State": "Arizona",
        "Latitude": "35.198068696000",
        "Longitude": "-111.651269632000",
        "ShortCode": "FLG",
        "Precheck": "False",
        "Airline": null,
        "DST": "False",
        "UTC": "-7",
        "closestWeatherStationID": "KFLG"
      }
    },
    {
      "airport": {
        "Name": "Florence Regional Airport",
        "City": "Florence",
        "State": "South Carolina",
        "Latitude": "34.193586569466",
        "Longitude": "-79.728872813229",
        "ShortCode": "FLO",
        "Precheck": "False",
        "Airline": null,
        "DST": "True",
        "UTC": "-5",
        "closestWeatherStationID": "KFLO"
      }
    },
    {
      "airport": {
        "Name": "Ford Airport",
        "City": "Kingsford",
        "State": "Michigan",
        "Latitude": "45.794956639000",
        "Longitude": "-88.072066472000",
        "ShortCode": "IMT",
        "Precheck": "False",
        "Airline": null,
        "DST": "True",
        "UTC": "-6",
        "closestWeatherStationID": "KIMT"
      }
    },
    {
      "airport": {
        "Name": "Fort Collins-Loveland Municipal Airport",
        "City": "Loveland",
        "State": "Colorado",
        "Latitude": "40.450269818399",
        "Longitude": "-105.006346959540",
        "ShortCode": "FNL",
        "Precheck": "False",
        "Airline": null,
        "DST": "True",
        "UTC": "-7",
        "closestWeatherStationID": "KFNL"
      }
    },
    {
      "airport": {
        "Name": "Fort Dodge Municipal Airport",
        "City": "Fort Dodge",
        "State": "Iowa",
        "Latitude": "42.497465667000",
        "Longitude": "-94.168019292000",
        "ShortCode": "FOD",
        "Precheck": "False",
        "Airline": null,
        "DST": "True",
        "UTC": "-6",
        "closestWeatherStationID": "KFOD"
      }
    },
    {
      "airport": {
        "Name": "Fort Lauderdale-Hollywood International Airport",
        "City": "Fort Lauderdale",
        "State": "Florida",
        "Latitude": "26.092179465011",
        "Longitude": "-80.153583281942",
        "ShortCode": "FLL",
        "Precheck": "True",
        "Airline": "Air Canada, Alaska Airlines, Allegiant Air, American Airlines, Avianca, Cape Air, Copa Airlines, Delta Air Lines, Emirates, JetBlue Airways, Silver Airways, Southwest Airlines, Spirit Airlines, Sunwing Airlines, United Airlines, Virgin America",
        "DST": "True",
        "UTC": "-5",
        "closestWeatherStationID": "KFLL"
      }
    },
    {
      "airport": {
        "Name": "Fort Smith Regional Airport",
        "City": "Fort Smith",
        "State": "Arkansas",
        "Latitude": "35.341273212290",
        "Longitude": "-94.358417587101",
        "ShortCode": "FSM",
        "Precheck": "True",
        "Airline": "American Airlines, Delta Air Lines",
        "DST": "True",
        "UTC": "-6",
        "closestWeatherStationID": "KFSM"
      }
    },
    {
      "airport": {
        "Name": "Fort Wayne International Airport ",
        "City": "Fort Wayne",
        "State": "Indiana",
        "Latitude": "40.989073487153",
        "Longitude": "-85.186180124013",
        "ShortCode": "FWA",
        "Precheck": "True",
        "Airline": "Allegiant Air, American Airlines, Delta Air Lines, United Airlines",
        "DST": "True",
        "UTC": "-5",
        "closestWeatherStationID": "KFWA"
      }
    },
    {
      "airport": {
        "Name": "Four Corners Regional Airport",
        "City": "Farmington",
        "State": "New Mexico",
        "Latitude": "36.728058897000",
        "Longitude": "-108.218686301000",
        "ShortCode": "FMN",
        "Precheck": "False",
        "Airline": null,
        "DST": "True",
        "UTC": "-7",
        "closestWeatherStationID": "KFMN"
      }
    },
    {
      "airport": {
        "Name": "Fresno Yosemite International Airport",
        "City": "Fresno",
        "State": "California",
        "Latitude": "36.766903518184",
        "Longitude": "-119.719583850810",
        "ShortCode": "FAT",
        "Precheck": "True",
        "Airline": "Aeromexico, Allegiant Air, American Airlines, Delta Air Lines, United Airlines",
        "DST": "True",
        "UTC": "-8",
        "closestWeatherStationID": "KFAT"
      }
    },
    {
      "airport": {
        "Name": "Friedman Memorial Airport",
        "City": "Hailey",
        "State": "Idaho",
        "Latitude": "43.519625592000",
        "Longitude": "-114.315316677000",
        "ShortCode": "SUN",
        "Precheck": "False",
        "Airline": null,
        "DST": "True",
        "UTC": "-7",
        "closestWeatherStationID": "KSUN"
      }
    },
    {
      "airport": {
        "Name": "Gainesville Regional Airport",
        "City": "Gainesville",
        "State": "Florida",
        "Latitude": "29.651626986000",
        "Longitude": "-82.324825585000",
        "ShortCode": "GNV",
        "Precheck": "False",
        "Airline": null,
        "DST": "True",
        "UTC": "-5",
        "closestWeatherStationID": "KGNV"
      }
    },
    {
      "airport": {
        "Name": "Garden City Regional Airport",
        "City": "Garden City",
        "State": "Kansas",
        "Latitude": "37.971685516000",
        "Longitude": "-100.872656319000",
        "ShortCode": "GCK",
        "Precheck": "False",
        "Airline": null,
        "DST": "True",
        "UTC": "-6",
        "closestWeatherStationID": "KGCK"
      }
    },
    {
      "airport": {
        "Name": "General Mitchell International Airport",
        "City": "Milwaukee",
        "State": "Wisconsin",
        "Latitude": "42.947829092939",
        "Longitude": "-87.909552528226",
        "ShortCode": "MKE",
        "Precheck": "True",
        "Airline": "Aeromexico, Air Canada, Alaska Airlines, American Airlines, Delta Air Lines, Frontier Airlines, OneJet, Southwest Airlines, United Airlines",
        "DST": "True",
        "UTC": "-6",
        "closestWeatherStationID": "KMKE"
      }
    },
    {
      "airport": {
        "Name": "General Wayne A. Downing Peoria International Airport",
        "City": "Peoria",
        "State": "Illinois",
        "Latitude": "40.670775584627",
        "Longitude": "-89.687376618036",
        "ShortCode": "PIA",
        "Precheck": "True",
        "Airline": "Allegiant Air, American Airlines, Delta Air Lines, United Airlines",
        "DST": "True",
        "UTC": "-6",
        "closestWeatherStationID": "KPIA"
      }
    },
    {
      "airport": {
        "Name": "George Bush Intercontinental Airport",
        "City": "Houston",
        "State": "Texas",
        "Latitude": "29.987352147385",
        "Longitude": "-95.348702379011",
        "ShortCode": "IAH",
        "Precheck": "True",
        "Airline": "American Airlines, Delta Air Lines, United Airlines, Air Canada, Alaska Airlines, WestJet, Aeromexico, Lufthansa, Frontier Airlines, Avianca, Emirates, Spirit Airlines, Turkish Airlines, Singapore Airlines, Korean Air, All Nippon Airways, Air France, KLM Royal Dutch Airlines",
        "DST": "True",
        "UTC": "-6",
        "closestWeatherStationID": "KIAH"
      }
    },
    {
      "airport": {
        "Name": "Gerald R. Ford International Airport",
        "City": "Grand Rapids",
        "State": "Michigan",
        "Latitude": "42.884486463381",
        "Longitude": "-85.530453291785",
        "ShortCode": "GRR",
        "Precheck": "True",
        "Airline": "Allegiant Air, American Airlines, Delta Air Lines, Southwest Airlines, United Airlines",
        "DST": "True",
        "UTC": "-5",
        "closestWeatherStationID": "KGRR"
      }
    },
    {
      "airport": {
        "Name": "Gillette-Campbell County Airport",
        "City": "Gillette",
        "State": "Wyoming",
        "Latitude": "44.291086619000",
        "Longitude": "-105.502218909000",
        "ShortCode": "GCC",
        "Precheck": "False",
        "Airline": null,
        "DST": "True",
        "UTC": "-7",
        "closestWeatherStationID": "KGCC"
      }
    },
    {
      "airport": {
        "Name": "Glacier Park International Airport",
        "City": "Kalispell",
        "State": "Montana",
        "Latitude": "48.303376839870",
        "Longitude": "-114.249271828830",
        "ShortCode": "FCA",
        "Precheck": "True",
        "Airline": "Delta Air Lines, United Airlines, Alaska Airlines, Allegiant Air",
        "DST": "True",
        "UTC": "-7",
        "closestWeatherStationID": "KGPI"
      }
    },
    {
      "airport": {
        "Name": "Glasgow International Airport",
        "City": "Glasgow",
        "State": "Montana",
        "Latitude": "48.209370295404",
        "Longitude": "-106.626574126490",
        "ShortCode": "GGW",
        "Precheck": "False",
        "Airline": null,
        "DST": "True",
        "UTC": "-7",
        "closestWeatherStationID": "KGGW"
      }
    },
    {
      "airport": {
        "Name": "Gogebic-Iron County Airport",
        "City": "Ironwood",
        "State": "Michigan",
        "Latitude": "46.454665584000",
        "Longitude": "-90.171008674000",
        "ShortCode": "IWD",
        "Precheck": "False",
        "Airline": null,
        "DST": "True",
        "UTC": "-6",
        "closestWeatherStationID": "KIWD"
      }
    },
    {
      "airport": {
        "Name": "Golden Triangle Regional Airport",
        "City": "Columbus",
        "State": "Mississippi",
        "Latitude": "33.453613259945",
        "Longitude": "-88.583372691895",
        "ShortCode": "GTR",
        "Precheck": "True",
        "Airline": "Delta Air Lines",
        "DST": "True",
        "UTC": "-6",
        "closestWeatherStationID": "KGTR"
      }
    },
    {
      "airport": {
        "Name": "Grand Forks International Airport-Mark Andrews Field",
        "City": "Grand Forks",
        "State": "North Dakota",
        "Latitude": "47.933448152711",
        "Longitude": "-97.086302550122",
        "ShortCode": "GFK",
        "Precheck": "True",
        "Airline": "Allegiant Air",
        "DST": "True",
        "UTC": "-6",
        "closestWeatherStationID": "KGFK"
      }
    },
    {
      "airport": {
        "Name": "Grand Junction Regional Airport",
        "City": "Grand Junction",
        "State": "Colorado",
        "Latitude": "39.122242591523",
        "Longitude": "-108.529731684670",
        "ShortCode": "GJT",
        "Precheck": "False",
        "Airline": "Allegiant Air",
        "DST": "True",
        "UTC": "-7",
        "closestWeatherStationID": "KGJT"
      }
    },
    {
      "airport": {
        "Name": "Great Falls International Airport",
        "City": "Great Falls",
        "State": "Montana",
        "Latitude": "47.481956754802",
        "Longitude": "-111.356619735510",
        "ShortCode": "GTF",
        "Precheck": "False",
        "Airline": null,
        "DST": "True",
        "UTC": "-7",
        "closestWeatherStationID": "KGTF"
      }
    },
    {
      "airport": {
        "Name": "Greater Binghamton Airport",
        "City": "Johnson City",
        "State": "New York",
        "Latitude": "42.115628708000",
        "Longitude": "-75.958808619000",
        "ShortCode": "BGM",
        "Precheck": "False",
        "Airline": null,
        "DST": "True",
        "UTC": "-5",
        "closestWeatherStationID": "KBGM"
      }
    },
    {
      "airport": {
        "Name": "Greater Rochester International Airport",
        "City": "Rochester",
        "State": "New York",
        "Latitude": "43.130790990313",
        "Longitude": "-77.668710376582",
        "ShortCode": "ROC",
        "Precheck": "True",
        "Airline": "Aeromexico, Air Canada, Allegiant Air, American Airlines, Delta Air Lines, JetBlue Airways, Southwest Airlines, United Airlines",
        "DST": "True",
        "UTC": "-5",
        "closestWeatherStationID": "KROC"
      }
    },
    {
      "airport": {
        "Name": "Greenbrier Valley Airport",
        "City": "Lewisburg",
        "State": "West Virginia",
        "Latitude": "37.801789595000",
        "Longitude": "-80.445625879000",
        "ShortCode": "LWB",
        "Precheck": "False",
        "Airline": null,
        "DST": "True",
        "UTC": "-5",
        "closestWeatherStationID": "KLWB"
      }
    },
    {
      "airport": {
        "Name": "Greenville-Spartanburg International Airport",
        "City": "Greer",
        "State": "South Carolina",
        "Latitude": "34.889705568958",
        "Longitude": "-82.215254688352",
        "ShortCode": "GSP",
        "Precheck": "True",
        "Airline": "American Airlines, Delta Air Lines, Southwest Airlines, United Airlines",
        "DST": "True",
        "UTC": "-5",
        "closestWeatherStationID": "KGSP"
      }
    },
    {
      "airport": {
        "Name": "Gulfport-Biloxi International Airport",
        "City": "Gulfport",
        "State": "Mississippi",
        "Latitude": "30.415136206572",
        "Longitude": "-89.071148538174",
        "ShortCode": "GPT",
        "Precheck": "True",
        "Airline": "American Airlines, Delta Air Lines, Sun Country Airlines, United Airlines",
        "DST": "True",
        "UTC": "-6",
        "closestWeatherStationID": "KGPT"
      }
    },
    {
      "airport": {
        "Name": "Gunnison-Crested Butte Regional Airport",
        "City": "Gunninson",
        "State": "Colorado",
        "Latitude": "38.537883429078",
        "Longitude": "-106.934831219780",
        "ShortCode": "GUC",
        "Precheck": "False",
        "Airline": null,
        "DST": "True",
        "UTC": "-7",
        "closestWeatherStationID": "KGUC"
      }
    },
    {
      "airport": {
        "Name": "Gustavus Airport",
        "City": "Gustavus",
        "State": "Alaska",
        "Latitude": "58.413326159001",
        "Longitude": "-135.736938839000",
        "ShortCode": "GST",
        "Precheck": "False",
        "Airline": null,
        "DST": "True",
        "UTC": "-9",
        "closestWeatherStationID": "PAGS"
      }
    },
    {
      "airport": {
        "Name": "Hagerstown Regional Airport",
        "City": "Hagerstown",
        "State": "Maryland",
        "Latitude": "39.701961749536",
        "Longitude": "-77.731547901913",
        "ShortCode": "HGR",
        "Precheck": "False",
        "Airline": null,
        "DST": "True",
        "UTC": "-5",
        "closestWeatherStationID": "KHGR"
      }
    },
    {
      "airport": {
        "Name": "Hancock County-Bar Harbor Airport",
        "City": "Trenton",
        "State": "Maine",
        "Latitude": "44.445813059926",
        "Longitude": "-68.360728324752",
        "ShortCode": "BHB",
        "Precheck": "False",
        "Airline": null,
        "DST": "True",
        "UTC": "-5",
        "closestWeatherStationID": "KBHB"
      }
    },
    {
      "airport": {
        "Name": "Harrisburg International Airport",
        "City": "Middletown",
        "State": "Pennsylvania",
        "Latitude": "40.197272530504",
        "Longitude": "-76.762107286122",
        "ShortCode": "MDT",
        "Precheck": "True",
        "Airline": "Air Canada, Allegiant Air, American Airlines, Delta Air Lines, Southern Airways Express, United Airlines",
        "DST": "True",
        "UTC": "-5",
        "closestWeatherStationID": "KMDT"
      }
    },
    {
      "airport": {
        "Name": "Hartsfield-Jackson Atlanta International Airport",
        "City": "Atlanta",
        "State": "Georgia",
        "Latitude": "33.641678192096",
        "Longitude": "-84.446615355813",
        "ShortCode": "ATL",
        "Precheck": "True",
        "Airline": "American Airlines, Delta Air Lines, Southwest Airlines, United Airlines, Air Canada, Alaska Airlines, Aeromexico, Lufthansa, Frontier Airlines, Virgin Atlantic, Boutique Airlines, Spirit Airlines, Turkish Airlines, Korean Air, Air France, KLM Royal Dutch Airlines",
        "DST": "True",
        "UTC": "-5",
        "closestWeatherStationID": "KATL"
      }
    },
    {
      "airport": {
        "Name": "Hattiesburg-Laurel Regional Airport",
        "City": "Moselle",
        "State": "Mississippi",
        "Latitude": "31.468990186149",
        "Longitude": "-89.324042433711",
        "ShortCode": "PIB",
        "Precheck": "True",
        "Airline": "American Airlines",
        "DST": "True",
        "UTC": "-6",
        "closestWeatherStationID": "KPIB"
      }
    },
    {
      "airport": {
        "Name": "Havre City-County Airport",
        "City": "Havre",
        "State": "Montana",
        "Latitude": "48.546591558854",
        "Longitude": "-109.762860360120",
        "ShortCode": "HVR",
        "Precheck": "False",
        "Airline": null,
        "DST": "True",
        "UTC": "-7",
        "closestWeatherStationID": "KHVR"
      }
    },
    {
      "airport": {
        "Name": "Hays Regional Airport",
        "City": "Hays",
        "State": "Kansas",
        "Latitude": "38.879178469000",
        "Longitude": "-99.326769029000",
        "ShortCode": "HYS",
        "Precheck": "False",
        "Airline": null,
        "DST": "True",
        "UTC": "-6",
        "closestWeatherStationID": "KHYS"
      }
    },
    {
      "airport": {
        "Name": "Hector International Airport ",
        "City": "Fargo",
        "State": "North Dakota",
        "Latitude": "46.919496433115",
        "Longitude": "-96.825720501499",
        "ShortCode": "FAR",
        "Precheck": "True",
        "Airline": "Allegiant Air, American Airlines, Delta Air Lines, United Airlines",
        "DST": "True",
        "UTC": "-6",
        "closestWeatherStationID": "KFAR"
      }
    },
    {
      "airport": {
        "Name": "Helena Regional Airport",
        "City": "Helena",
        "State": "Montana",
        "Latitude": "46.592217809805",
        "Longitude": "-112.010247394300",
        "ShortCode": "HLN",
        "Precheck": "False",
        "Airline": null,
        "DST": "True",
        "UTC": "-7",
        "closestWeatherStationID": "KHLN"
      }
    },
    {
      "airport": {
        "Name": "Henry E. Rohlsen Airport",
        "City": "St. Croix",
        "State": "Virgin Islands",
        "Latitude": "18.336749999000",
        "Longitude": "-64.888929998000",
        "ShortCode": "STX",
        "Precheck": "False",
        "Airline": null,
        "DST": "False",
        "UTC": "-4",
        "closestWeatherStationID": "TISX"
      }
    },
    {
      "airport": {
        "Name": "Hilo International Airport",
        "City": "Hilo",
        "State": "Hawaii",
        "Latitude": "19.715604159605",
        "Longitude": "-155.044860806480",
        "ShortCode": "ITO",
        "Precheck": "True",
        "Airline": "American Airlines, Hawaiian Airlines",
        "DST": "False",
        "UTC": "-10",
        "closestWeatherStationID": "PHTO"
      }
    },
    {
      "airport": {
        "Name": "Hilton Head Island Airport",
        "City": "Hilton Head Island",
        "State": "South Carolina",
        "Latitude": "32.216318350000",
        "Longitude": "-80.752606632000",
        "ShortCode": "HHH",
        "Precheck": "False",
        "Airline": null,
        "DST": "True",
        "UTC": "-5",
        "closestWeatherStationID": "KHXD"
      }
    },
    {
      "airport": {
        "Name": "Hollywood Burbank Airport",
        "City": "Burbank",
        "State": "California",
        "Latitude": "34.200387433434",
        "Longitude": "-118.348869378520",
        "ShortCode": "BUR",
        "Precheck": "True",
        "Airline": "Southwest Airlines, JetBlue Airways",
        "DST": "True",
        "UTC": "-8",
        "closestWeatherStationID": "KBUR"
      }
    },
    {
      "airport": {
        "Name": "Homer Airport",
        "City": "Homer",
        "State": "Alaska",
        "Latitude": "59.642495561000",
        "Longitude": "-151.548328454000",
        "ShortCode": "HOM",
        "Precheck": "False",
        "Airline": null,
        "DST": "True",
        "UTC": "-9",
        "closestWeatherStationID": "PAHO"
      }
    },
    {
      "airport": {
        "Name": "Honolulu International Airport",
        "City": "Honolulu",
        "State": "Hawaii",
        "Latitude": "21.332991538230",
        "Longitude": "-157.923047016910",
        "ShortCode": "HNL",
        "Precheck": "True",
        "Airline": "American Airlines, Delta Air Lines, United Airlines, Air Canada, Alaska Airlines, Hawaiian Airlines, Allegiant Air, Aeromexico, Korean Air, All Nippon Airways, Philippine Airlines",
        "DST": "False",
        "UTC": "-10",
        "closestWeatherStationID": "PHNL"
      }
    },
    {
      "airport": {
        "Name": "Houghton County Memorial Airport",
        "City": "Calumet",
        "State": "Michigan",
        "Latitude": "47.246586295000",
        "Longitude": "-88.454006072000",
        "ShortCode": "CMX",
        "Precheck": "False",
        "Airline": null,
        "DST": "True",
        "UTC": "-5",
        "closestWeatherStationID": "KCMX"
      }
    },
    {
      "airport": {
        "Name": "Huntsville International Airport",
        "City": "Huntsville",
        "State": "Alabama",
        "Latitude": "34.649130656955",
        "Longitude": "-86.776637750931",
        "ShortCode": "HSV",
        "Precheck": "True",
        "Airline": "American Airlines, Delta Air Lines, United Airlines",
        "DST": "True",
        "UTC": "-6",
        "closestWeatherStationID": "KHSV"
      }
    },
    {
      "airport": {
        "Name": "Huron Regional Airport",
        "City": "Huron",
        "State": "South Dakota",
        "Latitude": "44.363318708000",
        "Longitude": "-98.214256273000",
        "ShortCode": "HON",
        "Precheck": "False",
        "Airline": null,
        "DST": "True",
        "UTC": "-6",
        "closestWeatherStationID": "KHON"
      }
    },
    {
      "airport": {
        "Name": "Idaho Falls Regional Airport",
        "City": "Idaho Falls",
        "State": "Idaho",
        "Latitude": "43.482665209133",
        "Longitude": "-112.067090964280",
        "ShortCode": "IDA",
        "Precheck": "False",
        "Airline": null,
        "DST": "True",
        "UTC": "-7",
        "closestWeatherStationID": "KIDA"
      }
    },
    {
      "airport": {
        "Name": "Imperial County Airport",
        "City": "Imperial",
        "State": "California",
        "Latitude": "32.847549323000",
        "Longitude": "-115.569436364000",
        "ShortCode": "IPL",
        "Precheck": "False",
        "Airline": null,
        "DST": "True",
        "UTC": "-8",
        "closestWeatherStationID": "KIPL"
      }
    },
    {
      "airport": {
        "Name": "Indianapolis International Airport",
        "City": "Indianapolis",
        "State": "Indiana",
        "Latitude": "39.707264822315",
        "Longitude": "-86.303551014567",
        "ShortCode": "IND",
        "Precheck": "True",
        "Airline": "Aeromexico, Air Canada, Allegiant Air, American Airlines, Delta Air Lines, OneJet, Southwest Airlines, United Airlines",
        "DST": "True",
        "UTC": "-5",
        "closestWeatherStationID": "KIND"
      }
    },
    {
      "airport": {
        "Name": "Inyokern Airport",
        "City": "Inyokern",
        "State": "California",
        "Latitude": "35.646899359000",
        "Longitude": "-117.812568268000",
        "ShortCode": "IYK",
        "Precheck": "False",
        "Airline": null,
        "DST": "True",
        "UTC": "-8",
        "closestWeatherStationID": "KIYK"
      }
    },
    {
      "airport": {
        "Name": "Ithaca Tompkins Regional Airport",
        "City": "Ithaca",
        "State": "New York",
        "Latitude": "42.440625862001",
        "Longitude": "-76.496609885000",
        "ShortCode": "ITH",
        "Precheck": "False",
        "Airline": null,
        "DST": "True",
        "UTC": "-5",
        "closestWeatherStationID": "KITH"
      }
    },
    {
      "airport": {
        "Name": "Jack Brooks Regional Airport",
        "City": "Beaumont",
        "State": "Texas",
        "Latitude": "30.086049928000",
        "Longitude": "-94.101846282000",
        "ShortCode": "BPT",
        "Precheck": "True",
        "Airline": "American Airlines",
        "DST": "True",
        "UTC": "-6",
        "closestWeatherStationID": "KBPT"
      }
    },
    {
      "airport": {
        "Name": "Jackson Hole Airport",
        "City": "Jackson",
        "State": "Wyoming",
        "Latitude": "43.601947533353",
        "Longitude": "-110.736705306700",
        "ShortCode": "JAC",
        "Precheck": "True",
        "Airline": "American Airlines, Delta Air Lines, United Airlines",
        "DST": "True",
        "UTC": "-7",
        "closestWeatherStationID": "KJAC"
      }
    },
    {
      "airport": {
        "Name": "Jackson-Medgar Wiley Evers International Airport",
        "City": "Jackson",
        "State": "Mississippi",
        "Latitude": "32.298755533000",
        "Longitude": "-90.184808949000",
        "ShortCode": "JAN",
        "Precheck": "False",
        "Airline": null,
        "DST": "True",
        "UTC": "-6",
        "closestWeatherStationID": "KJAN"
      }
    },
    {
      "airport": {
        "Name": "Jacksonville International Airport",
        "City": "Jacksonville",
        "State": "Florida",
        "Latitude": "30.491447000680",
        "Longitude": "-81.683276103209",
        "ShortCode": "JAX",
        "Precheck": "True",
        "Airline": "Aeromexico, Allegiant Air, American Airlines, Delta Air Lines, JetBlue Airways, Silver Airways, Southwest Airlines, United Airlines",
        "DST": "True",
        "UTC": "-5",
        "closestWeatherStationID": "KJAX"
      }
    },
    {
      "airport": {
        "Name": "Jamestown Regional Airport",
        "City": "Jamestown",
        "State": "North Dakota",
        "Latitude": "46.924420054043",
        "Longitude": "-98.678780269293",
        "ShortCode": "JMS",
        "Precheck": "True",
        "Airline": "United Airlines",
        "DST": "True",
        "UTC": "-6",
        "closestWeatherStationID": "KJMS"
      }
    },
    {
      "airport": {
        "Name": "John F. Kennedy International Airport",
        "City": "Jamaica",
        "State": "New York",
        "Latitude": "40.654942441741",
        "Longitude": "-73.789688867047",
        "ShortCode": "JFK",
        "Precheck": "True",
        "Airline": "American Airlines, Delta Air Lines, United Airlines, Virgin America, Air Canada, Hawaiian Airlines, JetBlue Airways, Sun Country Airlines, WestJet, Aeromexico, Etihad Airways, Lufthansa, Avianca, Virgin Atlantic, Emirates, Turkish Airlines, Singapore Airlines, Copa Airlines, Korean Air, All Nippon Airways, Finnair, Cathay Pacific Airways, Air France, Brussels Airlines, KLM Royal Dutch Airlines, Philippine Airlines",
        "DST": "True",
        "UTC": "-5",
        "closestWeatherStationID": "KJFK"
      }
    },
    {
      "airport": {
        "Name": "John Glenn Columbus International Airport",
        "City": "Columbus",
        "State": "Ohio",
        "Latitude": "39.998527556403",
        "Longitude": "-82.889491910822",
        "ShortCode": "CMH",
        "Precheck": "True",
        "Airline": "Aeromexico, Air Canada, American Airlines, Delta Air Lines, Southwest Airlines, United Airlines",
        "DST": "True",
        "UTC": "-5",
        "closestWeatherStationID": "KCMH"
      }
    },
    {
      "airport": {
        "Name": "John Wayne Airport",
        "City": "Santa Ana",
        "State": "California",
        "Latitude": "33.681415636024",
        "Longitude": "-117.858759023510",
        "ShortCode": "SNA",
        "Precheck": "True",
        "Airline": "Alaska Airlines, American Airlines, Delta Air Lines, Southwest Airlines, United Airlines, WestJet",
        "DST": "True",
        "UTC": "-8",
        "closestWeatherStationID": "KSNA"
      }
    },
    {
      "airport": {
        "Name": "Johnstown-Cambria County Airport",
        "City": "Johnstown",
        "State": "Pennsylvania",
        "Latitude": "40.326735986000",
        "Longitude": "-78.921966615000",
        "ShortCode": "JST",
        "Precheck": "False",
        "Airline": null,
        "DST": "True",
        "UTC": "-5",
        "closestWeatherStationID": "KJST"
      }
    },
    {
      "airport": {
        "Name": "Joplin Regional Airport",
        "City": "Webb City",
        "State": "Missouri",
        "Latitude": "37.146449762000",
        "Longitude": "-94.462997727000",
        "ShortCode": "JLN",
        "Precheck": "False",
        "Airline": null,
        "DST": "True",
        "UTC": "-6",
        "closestWeatherStationID": "KJLN"
      }
    },
    {
      "airport": {
        "Name": "Juneau International Airport",
        "City": "Juneau",
        "State": "Alaska",
        "Latitude": "58.301938546000",
        "Longitude": "-134.419716753000",
        "ShortCode": "JNU",
        "Precheck": "False",
        "Airline": null,
        "DST": "True",
        "UTC": "-9",
        "closestWeatherStationID": "PAJN"
      }
    },
    {
      "airport": {
        "Name": "Kahului Airport",
        "City": "Kahului",
        "State": "Hawaii",
        "Latitude": "20.552413761887",
        "Longitude": "-156.612418425070",
        "ShortCode": "OGG",
        "Precheck": "True",
        "Airline": "Air Canada, Alaska Airlines, American Airlines, Delta Air Lines, Hawaiian Airlines, United Airlines, WestJet",
        "DST": "False",
        "UTC": "-10",
        "closestWeatherStationID": "PHOG"
      }
    },
    {
      "airport": {
        "Name": "Kalamazoo/Battle Creek International Airport",
        "City": "Portage",
        "State": "Michigan",
        "Latitude": "42.201148118000",
        "Longitude": "-85.579998663000",
        "ShortCode": "AZO",
        "Precheck": "True",
        "Airline": "American Airlines, Delta Air Lines, United Airlines",
        "DST": "True",
        "UTC": "-5",
        "closestWeatherStationID": "KAZO"
      }
    },
    {
      "airport": {
        "Name": "Kansas City International Airport",
        "City": "Kansas City",
        "State": "Missouri",
        "Latitude": "39.282027297823",
        "Longitude": "-94.668148988484",
        "ShortCode": "MCI",
        "Precheck": "True",
        "Airline": "Aeromexico, Air Canada, Allegiant Air, American Airlines, Delta Air Lines, Southwest Airlines, Spirit Airlines",
        "DST": "True",
        "UTC": "-6",
        "closestWeatherStationID": "KMCI"
      }
    },
    {
      "airport": {
        "Name": "Kapalua Airport",
        "City": "Lahaina",
        "State": "Hawaii",
        "Latitude": "20.878328186000",
        "Longitude": "-156.682498756000",
        "ShortCode": "JHM",
        "Precheck": "False",
        "Airline": null,
        "DST": "False",
        "UTC": "-10",
        "closestWeatherStationID": "PHJH"
      }
    },
    {
      "airport": {
        "Name": "Kearney Regional Airport",
        "City": "Kearney",
        "State": "Nebraska",
        "Latitude": "40.699456718000",
        "Longitude": "-99.081479782000",
        "ShortCode": "EAR",
        "Precheck": "False",
        "Airline": null,
        "DST": "True",
        "UTC": "-6",
        "closestWeatherStationID": "KEAR"
      }
    },
    {
      "airport": {
        "Name": "Kenai Municipal Airport",
        "City": "Kenai",
        "State": "Alaska",
        "Latitude": "60.554438618001",
        "Longitude": "-151.258329193000",
        "ShortCode": "ENA",
        "Precheck": "False",
        "Airline": null,
        "DST": "True",
        "UTC": "-9",
        "closestWeatherStationID": "PAEN"
      }
    },
    {
      "airport": {
        "Name": "Ketchikan International Airport",
        "City": "Ketchikan",
        "State": "Alaska",
        "Latitude": "55.342218244000",
        "Longitude": "-131.646108933000",
        "ShortCode": "KTN",
        "Precheck": "False",
        "Airline": null,
        "DST": "True",
        "UTC": "-9",
        "closestWeatherStationID": "PAKT"
      }
    },
    {
      "airport": {
        "Name": "Key West International Airport",
        "City": "Key West",
        "State": "Florida",
        "Latitude": "24.555698790000",
        "Longitude": "-81.782587713000",
        "ShortCode": "EYW",
        "Precheck": "False",
        "Airline": null,
        "DST": "True",
        "UTC": "-5",
        "closestWeatherStationID": "KEYW"
      }
    },
    {
      "airport": {
        "Name": "Killeen-Fort Hood Regional Airport",
        "City": "Killeen",
        "State": "Texas",
        "Latitude": "31.063059528575",
        "Longitude": "-97.817835923688",
        "ShortCode": "GRK",
        "Precheck": "True",
        "Airline": "American Airlines, Delta Air Lines, United Airlines",
        "DST": "True",
        "UTC": "-6",
        "closestWeatherStationID": "KGRK"
      }
    },
    {
      "airport": {
        "Name": "King Salmon Airport",
        "City": "King Salmon",
        "State": "Alaska",
        "Latitude": "58.688328250000",
        "Longitude": "-156.661386630000",
        "ShortCode": "AKN",
        "Precheck": "False",
        "Airline": null,
        "DST": "True",
        "UTC": "-9",
        "closestWeatherStationID": "PAKN"
      }
    },
    {
      "airport": {
        "Name": "Kinston Regional Jetport",
        "City": "Kinston",
        "State": "North Carolina",
        "Latitude": "35.262655963000",
        "Longitude": "-77.581639080000",
        "ShortCode": "ISO",
        "Precheck": "False",
        "Airline": null,
        "DST": "True",
        "UTC": "-5",
        "closestWeatherStationID": "KISO"
      }
    },
    {
      "airport": {
        "Name": "Kirksville Regional Airport",
        "City": "Kirksville",
        "State": "Missouri",
        "Latitude": "40.092987898774",
        "Longitude": "-92.540259411642",
        "ShortCode": "IRK",
        "Precheck": "False",
        "Airline": null,
        "DST": "True",
        "UTC": "-6",
        "closestWeatherStationID": "KIRK"
      }
    },
    {
      "airport": {
        "Name": "Klamath Falls Airport",
        "City": "Klamath Falls",
        "State": "Oregon",
        "Latitude": "42.224865512000",
        "Longitude": "-121.781665980000",
        "ShortCode": "LMT",
        "Precheck": "False",
        "Airline": null,
        "DST": "True",
        "UTC": "-8",
        "closestWeatherStationID": "KLMT"
      }
    },
    {
      "airport": {
        "Name": "Knox County Regional Airport",
        "City": "Owls Head",
        "State": "Maine",
        "Latitude": "44.063381241352",
        "Longitude": "-69.090247630623",
        "ShortCode": "RKD",
        "Precheck": "False",
        "Airline": null,
        "DST": "True",
        "UTC": "-5",
        "closestWeatherStationID": "KRKD"
      }
    },
    {
      "airport": {
        "Name": "Kodiak Airport",
        "City": "Kodiak",
        "State": "Alaska",
        "Latitude": "57.789996484000",
        "Longitude": "-152.407216721000",
        "ShortCode": "ADQ",
        "Precheck": "False",
        "Airline": null,
        "DST": "True",
        "UTC": "-9",
        "closestWeatherStationID": "PADQ"
      }
    },
    {
      "airport": {
        "Name": "Kona International Airport",
        "City": "Kailua-Kona",
        "State": "Hawaii",
        "Latitude": "53.180217935000",
        "Longitude": "15.439165977000",
        "ShortCode": "KOA",
        "Precheck": "True",
        "Airline": "Aeromexico, Air Canada, American Airlines, Hawaiian Airlines, United Airlines",
        "DST": "False",
        "UTC": "-10",
        "closestWeatherStationID": "PHKO"
      }
    },
    {
      "airport": {
        "Name": "L. M. Clayton Airport",
        "City": "Wolf Point",
        "State": "Montana",
        "Latitude": "48.094148057688",
        "Longitude": "-105.633980479910",
        "ShortCode": "OLF",
        "Precheck": "False",
        "Airline": null,
        "DST": "True",
        "UTC": "-7",
        "closestWeatherStationID": "KOLF"
      }
    },
    {
      "airport": {
        "Name": "La Crosse Regional Airport",
        "City": "La Crosse",
        "State": "Wisconsin",
        "Latitude": "43.871533193203",
        "Longitude": "-91.264020681708",
        "ShortCode": "LSE",
        "Precheck": "True",
        "Airline": "American Airlines, Delta Air Lines",
        "DST": "True",
        "UTC": "-6",
        "closestWeatherStationID": "KLSE"
      }
    },
    {
      "airport": {
        "Name": "Lafayette Regional Airport",
        "City": "Lafayette",
        "State": "Louisiana",
        "Latitude": "30.224088676000",
        "Longitude": "-92.019836076000",
        "ShortCode": "LFT",
        "Precheck": "True",
        "Airline": "American Airlines, Delta Air Lines, United Airlines",
        "DST": "True",
        "UTC": "-6",
        "closestWeatherStationID": "KLFT"
      }
    },
    {
      "airport": {
        "Name": "LaGuardia Airport",
        "City": "Queens",
        "State": "New York",
        "Latitude": "40.770353800589",
        "Longitude": "-73.875766384910",
        "ShortCode": "LGA",
        "Precheck": "True",
        "Airline": "American Airlines, Delta Air Lines, Southwest Airlines, United Airlines, Air Canada, Alaska Airlines, JetBlue Airways, WestJet, Aeromexico, Spirit Airlines",
        "DST": "True",
        "UTC": "-5",
        "closestWeatherStationID": "KLGA"
      }
    },
    {
      "airport": {
        "Name": "Lake Charles Regional Airport",
        "City": "Lake Charles",
        "State": "Louisiana",
        "Latitude": "30.213087152000",
        "Longitude": "-93.204396437000",
        "ShortCode": "LCH",
        "Precheck": "False",
        "Airline": null,
        "DST": "True",
        "UTC": "-6",
        "closestWeatherStationID": "KLCH"
      }
    },
    {
      "airport": {
        "Name": "Lambert-St. Louis International Airport",
        "City": "St Louis",
        "State": "Missouri",
        "Latitude": "38.741437027798",
        "Longitude": "-90.364827196417",
        "ShortCode": "STL",
        "Precheck": "True",
        "Airline": "Aeromexico, Air Canada, Alaska Airlines, American Airlines, Cape Air, Delta Air Lines, Frontier Airlines, Southwest Airlines, United Airlines, Xtra Airways",
        "DST": "True",
        "UTC": "-6",
        "closestWeatherStationID": "KSTL"
      }
    },
    {
      "airport": {
        "Name": "Lanai Airport",
        "City": "Lanai City",
        "State": "Hawaii",
        "Latitude": "20.830555926000",
        "Longitude": "-156.922219479000",
        "ShortCode": "LNY",
        "Precheck": "False",
        "Airline": null,
        "DST": "False",
        "UTC": "-10",
        "closestWeatherStationID": "PHNY"
      }
    },
    {
      "airport": {
        "Name": "Lancaster Airport",
        "City": "Lititz",
        "State": "Pennsylvania",
        "Latitude": "40.157317827000",
        "Longitude": "-76.306899250000",
        "ShortCode": "LNS",
        "Precheck": "False",
        "Airline": null,
        "DST": "True",
        "UTC": "-5",
        "closestWeatherStationID": "KLNS"
      }
    },
    {
      "airport": {
        "Name": "Laramie Regional Airport",
        "City": "Laramie",
        "State": "Wyoming",
        "Latitude": "41.311365593000",
        "Longitude": "-105.591099520000",
        "ShortCode": "LAR",
        "Precheck": "False",
        "Airline": null,
        "DST": "True",
        "UTC": "-7",
        "closestWeatherStationID": "KLAR"
      }
    },
    {
      "airport": {
        "Name": "Laredo International Airport",
        "City": "Laredo",
        "State": "Texas",
        "Latitude": "27.545582623540",
        "Longitude": "-99.452181051913",
        "ShortCode": "LRD",
        "Precheck": "False",
        "Airline": null,
        "DST": "True",
        "UTC": "-6",
        "closestWeatherStationID": "KLRD"
      }
    },
    {
      "airport": {
        "Name": "Laughlin/Bullhead International Airport",
        "City": "Bullhead City",
        "State": "Arizona",
        "Latitude": "35.147776660000",
        "Longitude": "-114.568297723000",
        "ShortCode": "IFP",
        "Precheck": "False",
        "Airline": null,
        "DST": "False",
        "UTC": "-7",
        "closestWeatherStationID": "KIFP"
      }
    },
    {
      "airport": {
        "Name": "Lawton-Fort Sill Regional Airport",
        "City": "Lawton",
        "State": "Oklahoma",
        "Latitude": "34.572541073913",
        "Longitude": "-98.404654027760",
        "ShortCode": "LAW",
        "Precheck": "True",
        "Airline": "American Airlines",
        "DST": "True",
        "UTC": "-6",
        "closestWeatherStationID": "KLAW"
      }
    },
    {
      "airport": {
        "Name": "Lea County Regional Airport",
        "City": "Hobbs",
        "State": "New Mexico",
        "Latitude": "32.687500000000",
        "Longitude": "-103.217333300000",
        "ShortCode": "HOB",
        "Precheck": "False",
        "Airline": null,
        "DST": "True",
        "UTC": "-7",
        "closestWeatherStationID": "KHOB"
      }
    },
    {
      "airport": {
        "Name": "Lebanon Municipal Airport",
        "City": "West Lebanon",
        "State": "New Hampshire",
        "Latitude": "43.624165418500",
        "Longitude": "-72.309839636489",
        "ShortCode": "LEB",
        "Precheck": "False",
        "Airline": null,
        "DST": "True",
        "UTC": "-5",
        "closestWeatherStationID": "KLEB"
      }
    },
    {
      "airport": {
        "Name": "Lehigh Valley International Airport",
        "City": "Allentown",
        "State": "Pennsylvania",
        "Latitude": "40.655749986174",
        "Longitude": "-75.428630426652",
        "ShortCode": "ABE",
        "Precheck": "True",
        "Airline": "Allegiant Air",
        "DST": "True",
        "UTC": "-5",
        "closestWeatherStationID": "KABE"
      }
    },
    {
      "airport": {
        "Name": "Lewiston-Nez Perce County Airport",
        "City": "Lewiston",
        "State": "Idaho",
        "Latitude": "46.416549468000",
        "Longitude": "-117.017659823000",
        "ShortCode": "LWS",
        "Precheck": "False",
        "Airline": null,
        "DST": "True",
        "UTC": "-8",
        "closestWeatherStationID": "KLWS"
      }
    },
    {
      "airport": {
        "Name": "Liberal Mid-America Regional Airport",
        "City": "Liberal",
        "State": "Kansas",
        "Latitude": "37.043075937000",
        "Longitude": "-100.920995528000",
        "ShortCode": "LBL",
        "Precheck": "False",
        "Airline": null,
        "DST": "True",
        "UTC": "-6",
        "closestWeatherStationID": "KLBL"
      }
    },
    {
      "airport": {
        "Name": "Lihue Airport",
        "City": "Lihue",
        "State": "Hawaii",
        "Latitude": "21.978231385771",
        "Longitude": "-159.350774525620",
        "ShortCode": "LIH",
        "Precheck": "True",
        "Airline": "Aeromexico, Alaska Airlines, American Airlines, Delta Air Lines, Hawaiian Airlines, United Airlines, WestJet",
        "DST": "False",
        "UTC": "-10",
        "closestWeatherStationID": "PHLI"
      }
    },
    {
      "airport": {
        "Name": "Lincoln Airport",
        "City": "Lincoln",
        "State": "Nebraska",
        "Latitude": "40.799995797000",
        "Longitude": "-96.666958041000",
        "ShortCode": "LNK",
        "Precheck": "False",
        "Airline": null,
        "DST": "True",
        "UTC": "-6",
        "closestWeatherStationID": "KLNK"
      }
    },
    {
      "airport": {
        "Name": "Logan International Airport",
        "City": "Boston",
        "State": "Massachusetts",
        "Latitude": "42.363444147830",
        "Longitude": "-71.025282717223",
        "ShortCode": "BOS",
        "Precheck": "True",
        "Airline": "American Airlines, Delta Air Lines, Southwest Airlines, United Airlines, Air Canada, Alaska Airlines, JetBlue Airways, Sun Country Airlines, WestJet, Aeromexico, Cape Air, Lufthansa, Virgin Atlantic, Sunwing Airlines, Emirates, Spirit Airlines, Turkish Airlines, Copa Airlines, Cathay Pacific Airways, Air France",
        "DST": "True",
        "UTC": "-5",
        "closestWeatherStationID": "KBOS"
      }
    },
    {
      "airport": {
        "Name": "Long Beach Airport",
        "City": "Long Beach",
        "State": "California",
        "Latitude": "33.817449794773",
        "Longitude": "-118.144404787250",
        "ShortCode": "LGB",
        "Precheck": "True",
        "Airline": "Alaska Airlines, American Airlines, Delta Air Lines, JetBlue Airways",
        "DST": "True",
        "UTC": "-8",
        "closestWeatherStationID": "KLGB"
      }
    },
    {
      "airport": {
        "Name": "Long Island MacArthur Airport",
        "City": "Ronkonkoma",
        "State": "New York",
        "Latitude": "40.789238024816",
        "Longitude": "-73.097599709858",
        "ShortCode": "ISP",
        "Precheck": "True",
        "Airline": "American Airlines, Southwest Airlines",
        "DST": "True",
        "UTC": "-5",
        "closestWeatherStationID": "KISP"
      }
    },
    {
      "airport": {
        "Name": "Los Angeles International Airport",
        "City": "Los Angeles",
        "State": "California",
        "Latitude": "33.954980694305",
        "Longitude": "-118.398236332140",
        "ShortCode": "LAX",
        "Precheck": "True",
        "Airline": "American Airlines, Delta Air Lines, Southwest Airlines, United Airlines, Virgin America, Air Canada, Alaska Airlines, JetBlue Airways, Sun Country Airlines, WestJet, Allegiant Air, Aeromexico, Etihad Airways, Lufthansa, Frontier Airlines, Avianca, Virgin Atlantic, Emirates, Boutique Airlines, Spirit Airlines, Turkish Airlines, Singapore Airlines, Copa Airlines, Korean Air, All Nippon Airways, Cathay Pacific Airways, Air France, KLM Royal Dutch Airlines, Philippine Airlines",
        "DST": "True",
        "UTC": "-8",
        "closestWeatherStationID": "KLAX"
      }
    },
    {
      "airport": {
        "Name": "Louis Armstrong New Orleans International Airport",
        "City": "Kenner",
        "State": "Louisiana",
        "Latitude": "29.982979386391",
        "Longitude": "-90.260213203276",
        "ShortCode": "MSY",
        "Precheck": "True",
        "Airline": "Aeromexico, Air Canada, Allegiant Air, American Airlines, Copa Airlines, Delta Air Lines, JetBlue Airways, Southwest Airlines, Spirit Airlines, United Airlines",
        "DST": "True",
        "UTC": "-6",
        "closestWeatherStationID": "KMSY"
      }
    },
    {
      "airport": {
        "Name": "Louisville International Airport",
        "City": "Louisville",
        "State": "Kentucky",
        "Latitude": "38.186098342965",
        "Longitude": "-85.743467493130",
        "ShortCode": "SDF",
        "Precheck": "True",
        "Airline": "American Airlines, Delta Air Lines, OneJet, Southwest Airlines, United Airlines",
        "DST": "True",
        "UTC": "-5",
        "closestWeatherStationID": "KSDF"
      }
    },
    {
      "airport": {
        "Name": "Lubbock Preston Smith International Airport",
        "City": "Lubbock",
        "State": "Texas",
        "Latitude": "33.656497853894",
        "Longitude": "-101.820038665650",
        "ShortCode": "LBB",
        "Precheck": "True",
        "Airline": "American Airlines, Southwest Airlines, United Airlines",
        "DST": "True",
        "UTC": "-6",
        "closestWeatherStationID": "KLBB"
      }
    },
    {
      "airport": {
        "Name": "Luis MuÃ±oz MarÃ­n International Airport",
        "City": "Carolina",
        "State": "Puerto Rico",
        "Latitude": "18.431791818000",
        "Longitude": "-66.013113807000",
        "ShortCode": "SJU",
        "Precheck": "True",
        "Airline": "American Airlines, Delta Air Lines, Southwest Airlines, United Airlines, Air Canada, Seaborne Airlines, Cape Air, Spirit Airlines, Copa Airlines, InterCaribbean Airways",
        "DST": "False",
        "UTC": "-4",
        "closestWeatherStationID": "TJSJ"
      }
    },
    {
      "airport": {
        "Name": "Lynchburg Regional Airport",
        "City": "Lynchburg",
        "State": "Virginia",
        "Latitude": "37.413748537000",
        "Longitude": "-79.142249064000",
        "ShortCode": "LYH",
        "Precheck": "False",
        "Airline": null,
        "DST": "True",
        "UTC": "-5",
        "closestWeatherStationID": "KLYH"
      }
    },
    {
      "airport": {
        "Name": "Magic Valley Regional Airport",
        "City": "Twin Falls",
        "State": "Idaho",
        "Latitude": "42.549391152281",
        "Longitude": "-114.465828338310",
        "ShortCode": "TWF",
        "Precheck": "False",
        "Airline": null,
        "DST": "True",
        "UTC": "-7",
        "closestWeatherStationID": "KTWF"
      }
    },
    {
      "airport": {
        "Name": "Mammoth Yosemite Airport",
        "City": "Mammoth Lakes",
        "State": "California",
        "Latitude": "37.624055600000",
        "Longitude": "-118.838750000000",
        "ShortCode": "MMH",
        "Precheck": "False",
        "Airline": null,
        "DST": "True",
        "UTC": "-8",
        "closestWeatherStationID": "KMMH"
      }
    },
    {
      "airport": {
        "Name": "Manchester-Boston Regional Airport",
        "City": "Manchester",
        "State": "New Hampshire",
        "Latitude": "42.928216647182",
        "Longitude": "-71.451014304066",
        "ShortCode": "MHT",
        "Precheck": "True",
        "Airline": "American Airlines, Delta Air Lines, Southwest Airlines, United Airlines",
        "DST": "True",
        "UTC": "-5",
        "closestWeatherStationID": "KMHT"
      }
    },
    {
      "airport": {
        "Name": "Manhattan Regional Airport",
        "City": "Manhattan",
        "State": "Kansas",
        "Latitude": "39.183607948000",
        "Longitude": "-96.571668065000",
        "ShortCode": "MHK",
        "Precheck": "False",
        "Airline": null,
        "DST": "True",
        "UTC": "-6",
        "closestWeatherStationID": "KMHK"
      }
    },
    {
      "airport": {
        "Name": "Manistee County Blacker Airport",
        "City": "Manistee",
        "State": "Michigan",
        "Latitude": "44.244448259000",
        "Longitude": "-86.324246105000",
        "ShortCode": "MBL",
        "Precheck": "False",
        "Airline": null,
        "DST": "True",
        "UTC": "-5",
        "closestWeatherStationID": "KMBL"
      }
    },
    {
      "airport": {
        "Name": "Martha's Vineyard Airport",
        "City": "Vineyard Haven",
        "State": "Massachusetts",
        "Latitude": "41.417368256041",
        "Longitude": "-70.643448118635",
        "ShortCode": "MVY",
        "Precheck": "False",
        "Airline": null,
        "DST": "True",
        "UTC": "-5",
        "closestWeatherStationID": "KMVY"
      }
    },
    {
      "airport": {
        "Name": "Mason City Municipal Airport",
        "City": "Mason City",
        "State": "Iowa",
        "Latitude": "43.153569583000",
        "Longitude": "-93.201039735000",
        "ShortCode": "MCW",
        "Precheck": "False",
        "Airline": null,
        "DST": "True",
        "UTC": "-6",
        "closestWeatherStationID": "KMCW"
      }
    },
    {
      "airport": {
        "Name": "Massena International Airport",
        "City": "Massena",
        "State": "New York",
        "Latitude": "44.932061106436",
        "Longitude": "-74.853036575777",
        "ShortCode": "MSS",
        "Precheck": "False",
        "Airline": null,
        "DST": "True",
        "UTC": "-5",
        "closestWeatherStationID": "KMSS"
      }
    },
    {
      "airport": {
        "Name": "MBS International Airport",
        "City": "Freeland",
        "State": "Michigan",
        "Latitude": "43.531263538283",
        "Longitude": "-84.095241046736",
        "ShortCode": "MBS",
        "Precheck": "True",
        "Airline": "Delta Air Lines, United Airlines",
        "DST": "True",
        "UTC": "-5",
        "closestWeatherStationID": "KMBS"
      }
    },
    {
      "airport": {
        "Name": "McAllen Miller International Airport",
        "City": "McAllen",
        "State": "Texas",
        "Latitude": "26.181329745073",
        "Longitude": "-98.240398762792",
        "ShortCode": "MFE",
        "Precheck": "True",
        "Airline": "Allegiant Air, American Airlines, Delta Air Lines, United Airlines",
        "DST": "True",
        "UTC": "-6",
        "closestWeatherStationID": "KMFE"
      }
    },
    {
      "airport": {
        "Name": "McCarran International Airport",
        "City": "Las Vegas",
        "State": "Nevada",
        "Latitude": "36.083999800000",
        "Longitude": "-115.153738900000",
        "ShortCode": "LAS",
        "Precheck": "True",
        "Airline": "American Airlines, Delta Air Lines, Southwest Airlines, United Airlines, Virgin America, Air Canada, Alaska Airlines, Hawaiian Airlines, JetBlue Airways, Sun Country Airlines, WestJet, Allegiant Air, Aeromexico, Frontier Airlines, Virgin Atlantic, Spirit Airlines, Copa Airlines, Korean Air",
        "DST": "True",
        "UTC": "-8",
        "closestWeatherStationID": "KLAS"
      }
    },
    {
      "airport": {
        "Name": "McClellan-Palomar Airport",
        "City": "Carlsbad",
        "State": "California",
        "Latitude": "33.125480025284",
        "Longitude": "-117.275583410250",
        "ShortCode": "CLD",
        "Precheck": "False",
        "Airline": null,
        "DST": "True",
        "UTC": "-8",
        "closestWeatherStationID": "KCRQ"
      }
    },
    {
      "airport": {
        "Name": "McCook Ben Nelson Regional Airport",
        "City": "McCook",
        "State": "Nebraska",
        "Latitude": "40.201949366000",
        "Longitude": "-100.625706750000",
        "ShortCode": "MCK",
        "Precheck": "False",
        "Airline": null,
        "DST": "True",
        "UTC": "-6",
        "closestWeatherStationID": "KMCK"
      }
    },
    {
      "airport": {
        "Name": "McGhee Tyson Airport",
        "City": "Alcoa",
        "State": "Tennessee",
        "Latitude": "35.805903731373",
        "Longitude": "-83.986698357143",
        "ShortCode": "TYS",
        "Precheck": "True",
        "Airline": "Allegiant Air, American Airlines, Delta Air Lines, United Airlines",
        "DST": "True",
        "UTC": "-5",
        "closestWeatherStationID": "KTYS"
      }
    },
    {
      "airport": {
        "Name": "Meadows Field Airport",
        "City": "Bakersfield",
        "State": "California",
        "Latitude": "35.438601534035",
        "Longitude": "-119.054769630310",
        "ShortCode": "BFL",
        "Precheck": "False",
        "Airline": null,
        "DST": "True",
        "UTC": "-8",
        "closestWeatherStationID": "KBFL"
      }
    },
    {
      "airport": {
        "Name": "Memphis International Airport",
        "City": "Memphis",
        "State": "Tennessee",
        "Latitude": "35.051944776032",
        "Longitude": "-89.981755726944",
        "ShortCode": "MEM",
        "Precheck": "True",
        "Airline": "Aeromexico, Allegiant Air, American Airlines, Delta Air Lines, Southwest Airlines, United Airlines",
        "DST": "True",
        "UTC": "-6",
        "closestWeatherStationID": "KMEM"
      }
    },
    {
      "airport": {
        "Name": "Merced Regional Airport",
        "City": "Merced",
        "State": "California",
        "Latitude": "37.284750000000",
        "Longitude": "-120.513916700000",
        "ShortCode": "MCE",
        "Precheck": "False",
        "Airline": null,
        "DST": "True",
        "UTC": "-8",
        "closestWeatherStationID": "KMCE"
      }
    },
    {
      "airport": {
        "Name": "Mercedita Airport",
        "City": "Ponce",
        "State": "Puerto Rico",
        "Latitude": "18.015668769000",
        "Longitude": "-66.614006544000",
        "ShortCode": "PSE",
        "Precheck": "False",
        "Airline": null,
        "DST": "False",
        "UTC": "-4",
        "closestWeatherStationID": "TJPS"
      }
    },
    {
      "airport": {
        "Name": "Meridian Regional Airport",
        "City": "Meridian",
        "State": "Mississippi",
        "Latitude": "32.333249682828",
        "Longitude": "-88.744386851471",
        "ShortCode": "MEI",
        "Precheck": "True",
        "Airline": "American Airlines",
        "DST": "True",
        "UTC": "-6",
        "closestWeatherStationID": "KMEI"
      }
    },
    {
      "airport": {
        "Name": "Merle K. (Mudhole) Smith Airport",
        "City": "Cordova",
        "State": "Alaska",
        "Latitude": "60.542775654000",
        "Longitude": "-145.757499935000",
        "ShortCode": "CDV",
        "Precheck": "False",
        "Airline": null,
        "DST": "True",
        "UTC": "-9",
        "closestWeatherStationID": "PACV"
      }
    },
    {
      "airport": {
        "Name": "Miami International Airport",
        "City": "Miami",
        "State": "Florida",
        "Latitude": "25.771722471016",
        "Longitude": "-80.263590538172",
        "ShortCode": "MIA",
        "Precheck": "True",
        "Airline": "American Airlines, Delta Air Lines, United Airlines, Air Canada, Sun Country Airlines, WestJet, Aeromexico, Lufthansa, Frontier Airlines, Aruba Airlines, Avianca, Virgin Atlantic, Miami Air International, Xtra Airways, Turkish Airlines, Silver Airways, Copa Airlines, Finnair, Air France, KLM Royal Dutch Airlines",
        "DST": "True",
        "UTC": "-5",
        "closestWeatherStationID": "KMIA"
      }
    },
    {
      "airport": {
        "Name": "Mid Delta Regional Airport",
        "City": "Greenville",
        "State": "Mississippi",
        "Latitude": "33.410116391000",
        "Longitude": "-91.061767612000",
        "ShortCode": "GLH",
        "Precheck": "False",
        "Airline": null,
        "DST": "True",
        "UTC": "-6",
        "closestWeatherStationID": "KGLH"
      }
    },
    {
      "airport": {
        "Name": "Mid-Ohio Valley Regional Airport",
        "City": "Williamstown",
        "State": "West Virginia",
        "Latitude": "39.400628186000",
        "Longitude": "-81.448177394000",
        "ShortCode": "PKB",
        "Precheck": "False",
        "Airline": null,
        "DST": "True",
        "UTC": "-5",
        "closestWeatherStationID": "KPKB"
      }
    },
    {
      "airport": {
        "Name": "MidAmerica St. Louis Airport",
        "City": "Mascoutah",
        "State": "Illinois",
        "Latitude": "38.547547769515",
        "Longitude": "-89.815246393106",
        "ShortCode": "BLV",
        "Precheck": "True",
        "Airline": "Allegiant Air",
        "DST": "True",
        "UTC": "-6",
        "closestWeatherStationID": "KBLV"
      }
    },
    {
      "airport": {
        "Name": "Middle Georgia Regional Airport",
        "City": "Macon",
        "State": "Georgia",
        "Latitude": "32.702777281348",
        "Longitude": "-83.651345968541",
        "ShortCode": "MCN",
        "Precheck": "False",
        "Airline": null,
        "DST": "True",
        "UTC": "-5",
        "closestWeatherStationID": "KMCN"
      }
    },
    {
      "airport": {
        "Name": "Midland International Air and Space Port",
        "City": "Midland",
        "State": "Texas",
        "Latitude": "31.997349785000",
        "Longitude": "-102.077905843000",
        "ShortCode": "MAF",
        "Precheck": "True",
        "Airline": "American Airlines, Southwest Airlines, United Airlines",
        "DST": "True",
        "UTC": "-6",
        "closestWeatherStationID": "KMAF"
      }
    },
    {
      "airport": {
        "Name": "Mineta San Jose International Airport",
        "City": "San Jose",
        "State": "California",
        "Latitude": "37.363951400000",
        "Longitude": "-121.931131500000",
        "ShortCode": "SJC",
        "Precheck": "True",
        "Airline": "American Airlines, Delta Air Lines, Southwest Airlines, United Airlines, Alaska Airlines, Hawaiian Airlines, JetBlue Airways, Lufthansa, All Nippon Airways",
        "DST": "True",
        "UTC": "-8",
        "closestWeatherStationID": "KSJC"
      }
    },
    {
      "airport": {
        "Name": "Minneapolis-Saint Paul International Airport",
        "City": "St Paul",
        "State": "Minnesota",
        "Latitude": "44.882637616934",
        "Longitude": "-93.206151126972",
        "ShortCode": "MSP",
        "Precheck": "True",
        "Airline": "American Airlines, Delta Air Lines, Southwest Airlines, United Airlines, Air Canada, Alaska Airlines, Sun Country Airlines, Aeromexico, Boutique Airlines, Spirit Airlines, Air France, KLM Royal Dutch Airlines",
        "DST": "True",
        "UTC": "-6",
        "closestWeatherStationID": "KMSP"
      }
    },
    {
      "airport": {
        "Name": "Minot International Airport",
        "City": "Minot",
        "State": "North Dakota",
        "Latitude": "48.254621925263",
        "Longitude": "-101.293344376340",
        "ShortCode": "MOT",
        "Precheck": "True",
        "Airline": "Allegiant Air",
        "DST": "True",
        "UTC": "-6",
        "closestWeatherStationID": "KMOT"
      }
    },
    {
      "airport": {
        "Name": "Missoula International Airport",
        "City": "Missoula",
        "State": "Montana",
        "Latitude": "46.872147530000",
        "Longitude": "-113.993995697000",
        "ShortCode": "MSO",
        "Precheck": "True",
        "Airline": "American Airlines, Delta Air Lines, United Airlines, Alaska Airlines, Allegiant Air, Frontier Airlines",
        "DST": "True",
        "UTC": "-7",
        "closestWeatherStationID": "KMSO"
      }
    },
    {
      "airport": {
        "Name": "Mobile Regional Airport",
        "City": "Mobile",
        "State": "Alabama",
        "Latitude": "30.678011190065",
        "Longitude": "-88.239233545591",
        "ShortCode": "MOB",
        "Precheck": "True",
        "Airline": "American Airlines, Delta Air Lines, United Airlines",
        "DST": "True",
        "UTC": "-6",
        "closestWeatherStationID": "KMOB"
      }
    },
    {
      "airport": {
        "Name": "Molokai Airport",
        "City": "Ho&#039;olehau",
        "State": "Hawaii",
        "Latitude": "21.107776320000",
        "Longitude": "-157.111936140000",
        "ShortCode": "MKK",
        "Precheck": "False",
        "Airline": null,
        "DST": "False",
        "UTC": "-10",
        "closestWeatherStationID": "PHMK"
      }
    },
    {
      "airport": {
        "Name": "Monroe Regional Airport",
        "City": "Monroe",
        "State": "Louisiana",
        "Latitude": "32.509309845000",
        "Longitude": "-92.119299748000",
        "ShortCode": "MLU",
        "Precheck": "False",
        "Airline": null,
        "DST": "True",
        "UTC": "-6",
        "closestWeatherStationID": "KMLU"
      }
    },
    {
      "airport": {
        "Name": "Monterey Regional Airport",
        "City": "Monterey",
        "State": "California",
        "Latitude": "36.587364355082",
        "Longitude": "-121.851174595630",
        "ShortCode": "MRY",
        "Precheck": "False",
        "Airline": null,
        "DST": "True",
        "UTC": "-8",
        "closestWeatherStationID": "KMRY"
      }
    },
    {
      "airport": {
        "Name": "Montgomery Regional Airport",
        "City": "Montgomery",
        "State": "Alabama",
        "Latitude": "32.366807493000",
        "Longitude": "-86.299966260000",
        "ShortCode": "MGM",
        "Precheck": "False",
        "Airline": null,
        "DST": "True",
        "UTC": "-6",
        "closestWeatherStationID": "KMGM"
      }
    },
    {
      "airport": {
        "Name": "Montrose Regional Airport",
        "City": "Montrose",
        "State": "Colorado",
        "Latitude": "38.500352970914",
        "Longitude": "-107.899569734750",
        "ShortCode": "MTJ",
        "Precheck": "True",
        "Airline": "Allegiant Air, American Airlines, Delta Air Lines, United Airlines",
        "DST": "True",
        "UTC": "-7",
        "closestWeatherStationID": "KMTJ"
      }
    },
    {
      "airport": {
        "Name": "Morgantown Municipal Airport",
        "City": "Morgantown",
        "State": "West Virginia",
        "Latitude": "39.629527369000",
        "Longitude": "-79.955898346000",
        "ShortCode": "MGW",
        "Precheck": "False",
        "Airline": "Southern Airways Express",
        "DST": "True",
        "UTC": "-5",
        "closestWeatherStationID": "KMGW"
      }
    },
    {
      "airport": {
        "Name": "Muskegon County Airport",
        "City": "Norton Shores",
        "State": "Michigan",
        "Latitude": "43.168899722001",
        "Longitude": "-86.263946957000",
        "ShortCode": "MKG",
        "Precheck": "False",
        "Airline": null,
        "DST": "True",
        "UTC": "-5",
        "closestWeatherStationID": "KMKG"
      }
    },
    {
      "airport": {
        "Name": "Myrtle Beach International Airport",
        "City": "Myrtle Beach",
        "State": "South Carolina",
        "Latitude": "33.681478230637",
        "Longitude": "-78.922596831178",
        "ShortCode": "MYR",
        "Precheck": "True",
        "Airline": "American Airlines, Delta Air Lines, United Airlines, Sun Country Airlines, WestJet, Allegiant Air, Frontier Airlines, Spirit Airlines",
        "DST": "True",
        "UTC": "-5",
        "closestWeatherStationID": "KMYR"
      }
    },
    {
      "airport": {
        "Name": "Nantucket Memorial Airport",
        "City": "Nantucket",
        "State": "Massachusetts",
        "Latitude": "41.259199472279",
        "Longitude": "-70.065278255986",
        "ShortCode": "ACK",
        "Precheck": "False",
        "Airline": null,
        "DST": "True",
        "UTC": "-5",
        "closestWeatherStationID": "KACK"
      }
    },
    {
      "airport": {
        "Name": "Naples Municipal Airport",
        "City": "Naples",
        "State": "Florida",
        "Latitude": "26.142037490000",
        "Longitude": "-81.794808628000",
        "ShortCode": "APF",
        "Precheck": "False",
        "Airline": null,
        "DST": "True",
        "UTC": "-5",
        "closestWeatherStationID": "KAPF"
      }
    },
    {
      "airport": {
        "Name": "Nashville International Airport",
        "City": "Nashville",
        "State": "Tennessee",
        "Latitude": "36.134406891366",
        "Longitude": "-86.668193990360",
        "ShortCode": "BNA",
        "Precheck": "True",
        "Airline": "American Airlines, Delta Air Lines, Southwest Airlines, United Airlines, Air Canada, Aeromexico, Boutique Airlines, Contour Aviation",
        "DST": "True",
        "UTC": "-6",
        "closestWeatherStationID": "KBNA"
      }
    },
    {
      "airport": {
        "Name": "New Bedford Regional Airport",
        "City": "New Bedford",
        "State": "Massachusetts",
        "Latitude": "-25.920907642000",
        "Longitude": "25.671245005000",
        "ShortCode": "EWB",
        "Precheck": "False",
        "Airline": null,
        "DST": "True",
        "UTC": "-5",
        "closestWeatherStationID": "KEWB"
      }
    },
    {
      "airport": {
        "Name": "Newark Liberty International Airport",
        "City": "Newark",
        "State": "New Jersey",
        "Latitude": "40.692826901841",
        "Longitude": "-74.186408643943",
        "ShortCode": "EWR",
        "Precheck": "True",
        "Airline": "American Airlines, Delta Air Lines, Southwest Airlines, United Airlines, Air Canada, JetBlue Airways, Aeromexico, Lufthansa, Virgin Atlantic, Sunwing Airlines, Spirit Airlines, Dominican Wings, Cathay Pacific Airways",
        "DST": "True",
        "UTC": "-5",
        "closestWeatherStationID": "KEWR"
      }
    },
    {
      "airport": {
        "Name": "Newport News Williamsburg International Airport",
        "City": "Newport News",
        "State": "Virginia",
        "Latitude": "36.978758646000",
        "Longitude": "-76.427999975000",
        "ShortCode": "PHF",
        "Precheck": "False",
        "Airline": null,
        "DST": "True",
        "UTC": "-5",
        "closestWeatherStationID": "KPHF"
      }
    },
    {
      "airport": {
        "Name": "Niagara Falls International Airport",
        "City": "Niagara Falls",
        "State": "New York",
        "Latitude": "43.076118834318",
        "Longitude": "-78.990928246541",
        "ShortCode": "IAG",
        "Precheck": "False",
        "Airline": null,
        "DST": "True",
        "UTC": "-5",
        "closestWeatherStationID": "KIAG"
      }
    },
    {
      "airport": {
        "Name": "Nome Airport",
        "City": "Nome",
        "State": "Alaska",
        "Latitude": "64.547914585191",
        "Longitude": "-163.017307090050",
        "ShortCode": "OME",
        "Precheck": "False",
        "Airline": null,
        "DST": "True",
        "UTC": "-9",
        "closestWeatherStationID": "PAOM"
      }
    },
    {
      "airport": {
        "Name": "Norfolk International Airport",
        "City": "Norfolk",
        "State": "Virginia",
        "Latitude": "36.898236369314",
        "Longitude": "-76.211713838322",
        "ShortCode": "ORF",
        "Precheck": "True",
        "Airline": "Aeromexico, American Airlines, Delta Air Lines, Southwest Airlines, United Airlines",
        "DST": "True",
        "UTC": "-5",
        "closestWeatherStationID": "KORF"
      }
    },
    {
      "airport": {
        "Name": "North Central West Virginia Airport",
        "City": "Bridgeport",
        "State": "West Virginia",
        "Latitude": "39.296625240763",
        "Longitude": "-80.231445779798",
        "ShortCode": "CKB",
        "Precheck": "True",
        "Airline": "Allegiant Air",
        "DST": "True",
        "UTC": "-5",
        "closestWeatherStationID": "KCKB"
      }
    },
    {
      "airport": {
        "Name": "North Platte Regional Airport",
        "City": "North Platte",
        "State": "Nebraska",
        "Latitude": "41.123886056000",
        "Longitude": "-100.765419353000",
        "ShortCode": "LBF",
        "Precheck": "False",
        "Airline": null,
        "DST": "True",
        "UTC": "-6",
        "closestWeatherStationID": "KLBF"
      }
    },
    {
      "airport": {
        "Name": "Northeast Florida Regional Airport",
        "City": "St. Augustine",
        "State": "Florida",
        "Latitude": "29.894686413000",
        "Longitude": "-81.314516758000",
        "ShortCode": "UST",
        "Precheck": "False",
        "Airline": null,
        "DST": "True",
        "UTC": "-5",
        "closestWeatherStationID": "KSGJ"
      }
    },
    {
      "airport": {
        "Name": "Northern Maine Regional Airport at Presque Isle",
        "City": "Presque Isle",
        "State": "Maine",
        "Latitude": "46.681148482000",
        "Longitude": "-68.015857119000",
        "ShortCode": "PQI",
        "Precheck": "False",
        "Airline": null,
        "DST": "True",
        "UTC": "-5",
        "closestWeatherStationID": "KPQI"
      }
    },
    {
      "airport": {
        "Name": "Northwest Alabama Regional Airport",
        "City": "Muscle Shoals",
        "State": "Alabama",
        "Latitude": "34.744805927000",
        "Longitude": "-87.667529878000",
        "ShortCode": "MSL",
        "Precheck": "False",
        "Airline": null,
        "DST": "True",
        "UTC": "-6",
        "closestWeatherStationID": "KMSL"
      }
    },
    {
      "airport": {
        "Name": "Northwest Arkansas Regional Airport",
        "City": "Bentonville",
        "State": "Arkansas",
        "Latitude": "36.275247059505",
        "Longitude": "-94.297147346272",
        "ShortCode": "XNA",
        "Precheck": "True",
        "Airline": "Aeromexico, Allegiant Air, American Airlines, Delta Air Lines, United Airlines",
        "DST": "True",
        "UTC": "-6",
        "closestWeatherStationID": "KXNA"
      }
    },
    {
      "airport": {
        "Name": "Northwest Florida Beaches International Airport",
        "City": "Panama City",
        "State": "Florida",
        "Latitude": "30.159456413000",
        "Longitude": "-85.659826077000",
        "ShortCode": "ECP",
        "Precheck": "True",
        "Airline": "American Airlines, Delta Air Lines, Southwest Airlines, United Airlines",
        "DST": "True",
        "UTC": "-6",
        "closestWeatherStationID": "KECP"
      }
    },
    {
      "airport": {
        "Name": "Oakland International Airport",
        "City": "Oakland",
        "State": "California",
        "Latitude": "37.712581627241",
        "Longitude": "-122.213174070030",
        "ShortCode": "OAK",
        "Precheck": "True",
        "Airline": "Aeromexico, Alaska Airlines, Allegiant Air, American Airlines, Boutique Airlines, Delta Air Lines, Hawaiian Airlines, JetBlue Airways, Southwest Airlines, Spirit Airlines, United Airlines",
        "DST": "True",
        "UTC": "-8",
        "closestWeatherStationID": "KOAK"
      }
    },
    {
      "airport": {
        "Name": "Ogden-Hinckley Airport",
        "City": "Ogden",
        "State": "Utah",
        "Latitude": "41.191335576677",
        "Longitude": "-112.007580854070",
        "ShortCode": "OGD",
        "Precheck": "False",
        "Airline": null,
        "DST": "True",
        "UTC": "-7",
        "closestWeatherStationID": "KOGD"
      }
    },
    {
      "airport": {
        "Name": "Ogdensburg International Airport",
        "City": "Ogdensburg",
        "State": "New York",
        "Latitude": "44.677960181318",
        "Longitude": "-75.476884855951",
        "ShortCode": "OGS",
        "Precheck": "False",
        "Airline": null,
        "DST": "True",
        "UTC": "-5",
        "closestWeatherStationID": "KOGS"
      }
    },
    {
      "airport": {
        "Name": "Ontario International Airport",
        "City": "Ontario",
        "State": "California",
        "Latitude": "34.062519580415",
        "Longitude": "-117.600591448640",
        "ShortCode": "ONT",
        "Precheck": "True",
        "Airline": "Aeromexico, American Airlines, Southwest Airlines",
        "DST": "True",
        "UTC": "-8",
        "closestWeatherStationID": "KONT"
      }
    },
    {
      "airport": {
        "Name": "Orlando International Airport",
        "City": "Orlando",
        "State": "Florida",
        "Latitude": "28.439690509211",
        "Longitude": "-81.311511998679",
        "ShortCode": "MCO",
        "Precheck": "True",
        "Airline": "Aeromexico, Air Canada, Alaska Airlines, American Airlines, Copa Airlines, Delta Air Lines, Emirates, Frontier Airlines, JetBlue Airways, Lufthansa, Silver Airways, Southwest Airlines, Spirit Airlines, Sun Country Airlines, Sunwing Airlines, United Airlines, Virgin America, Virgin Atlantic, WestJet",
        "DST": "True",
        "UTC": "-5",
        "closestWeatherStationID": "KMCO"
      }
    },
    {
      "airport": {
        "Name": "Orlando Melbourne International Airport",
        "City": "Melbourne",
        "State": "Florida",
        "Latitude": "28.083628659000",
        "Longitude": "-80.608106457000",
        "ShortCode": "MLB",
        "Precheck": "True",
        "Airline": "American Airlines, Delta Air Lines",
        "DST": "True",
        "UTC": "-5",
        "closestWeatherStationID": "KMLB"
      }
    },
    {
      "airport": {
        "Name": "Orlando Sanford International Airport",
        "City": "Sanford",
        "State": "Florida",
        "Latitude": "28.775134046800",
        "Longitude": "-81.242692177701",
        "ShortCode": "SFB",
        "Precheck": "True",
        "Airline": "Allegiant Air",
        "DST": "True",
        "UTC": "-5",
        "closestWeatherStationID": "KSFB"
      }
    },
    {
      "airport": {
        "Name": "Outagamie County Regional Airport",
        "City": "Appleton",
        "State": "Wisconsin",
        "Latitude": "44.259660936304",
        "Longitude": "-88.511088957589",
        "ShortCode": "ATW",
        "Precheck": "True",
        "Airline": "Allegiant Air, Delta Air Lines, United Airlines",
        "DST": "True",
        "UTC": "-6",
        "closestWeatherStationID": "KATW"
      }
    },
    {
      "airport": {
        "Name": "Owensboro-Daviess County Regional Airport",
        "City": "Owensboro",
        "State": "Kentucky",
        "Latitude": "37.747205473855",
        "Longitude": "-87.163257061164",
        "ShortCode": "OWB",
        "Precheck": "False",
        "Airline": null,
        "DST": "True",
        "UTC": "-6",
        "closestWeatherStationID": "KOWB"
      }
    },
    {
      "airport": {
        "Name": "Page Municipal Airport",
        "City": "Page",
        "State": "Arizona",
        "Latitude": "36.914715830000",
        "Longitude": "-111.455829479000",
        "ShortCode": "PGA",
        "Precheck": "False",
        "Airline": null,
        "DST": "False",
        "UTC": "-7",
        "closestWeatherStationID": "KPGA"
      }
    },
    {
      "airport": {
        "Name": "Pago Pago International Airport",
        "City": "Pago Pago",
        "State": "American Samoa",
        "Latitude": "31.412421385140",
        "Longitude": "-97.052829205303",
        "ShortCode": "PPG",
        "Precheck": "False",
        "Airline": null,
        "DST": "False",
        "UTC": "-11",
        "closestWeatherStationID": "NSTU"
      }
    },
    {
      "airport": {
        "Name": "Paine Field Snohomish County Airport",
        "City": "Everett",
        "State": "Washington",
        "Latitude": "47.907000000000",
        "Longitude": "-122.281583300000",
        "ShortCode": "PAE",
        "Precheck": "False",
        "Airline": null,
        "DST": "True",
        "UTC": "-8",
        "closestWeatherStationID": "KPAE"
      }
    },
    {
      "airport": {
        "Name": "Palm Beach International Airport",
        "City": "West Palm Beach",
        "State": "Florida",
        "Latitude": "26.657380943677",
        "Longitude": "-80.128965981294",
        "ShortCode": "PBI",
        "Precheck": "True",
        "Airline": "Air Canada, Allegiant Air, American Airlines, Delta Air Lines, JetBlue Airways, Silver Airways, Southwest Airlines, Spirit Airlines, United Airlines, WestJet",
        "DST": "True",
        "UTC": "-5",
        "closestWeatherStationID": "KPBI"
      }
    },
    {
      "airport": {
        "Name": "Palm Springs International Airport",
        "City": "Palm Springs",
        "State": "California",
        "Latitude": "33.841180414246",
        "Longitude": "-116.529557040120",
        "ShortCode": "PSP",
        "Precheck": "True",
        "Airline": "Air Canada, Alaska Airlines, Allegiant Air, American Airlines, Delta Air Lines, Sun Country Airlines, United Airlines, Virgin America, WestJet",
        "DST": "True",
        "UTC": "-8",
        "closestWeatherStationID": "KPSP"
      }
    },
    {
      "airport": {
        "Name": "Pangborn Memorial Airport",
        "City": "East Wenatchee",
        "State": "Washington",
        "Latitude": "47.415676787001",
        "Longitude": "-120.293126099000",
        "ShortCode": "EAT",
        "Precheck": "False",
        "Airline": null,
        "DST": "True",
        "UTC": "-8",
        "closestWeatherStationID": "KEAT"
      }
    },
    {
      "airport": {
        "Name": "Pellston Regional Airport",
        "City": "Pellston",
        "State": "Michigan",
        "Latitude": "45.552788133000",
        "Longitude": "-84.783938319000",
        "ShortCode": "PLN",
        "Precheck": "False",
        "Airline": null,
        "DST": "True",
        "UTC": "-5",
        "closestWeatherStationID": "KPLN"
      }
    },
    {
      "airport": {
        "Name": "Pensacola International Airport",
        "City": "Pensacola",
        "State": "Florida",
        "Latitude": "30.475953778145",
        "Longitude": "-87.194165443280",
        "ShortCode": "PNS",
        "Precheck": "True",
        "Airline": "American Airlines, Delta Air Lines, Silver Airways, Southwest Airlines, United Airlines",
        "DST": "True",
        "UTC": "-6",
        "closestWeatherStationID": "KPNS"
      }
    },
    {
      "airport": {
        "Name": "Petersburg James A. Johnson Airport",
        "City": "Petersburg",
        "State": "Alaska",
        "Latitude": "56.812498745000",
        "Longitude": "-132.955555709000",
        "ShortCode": "PSG",
        "Precheck": "False",
        "Airline": null,
        "DST": "True",
        "UTC": "-9",
        "closestWeatherStationID": "PAPG"
      }
    },
    {
      "airport": {
        "Name": "Philadelphia International Airport",
        "City": "Philadelphia",
        "State": "Pennsylvania",
        "Latitude": "39.909112197571",
        "Longitude": "-75.222957104286",
        "ShortCode": "PHL",
        "Precheck": "True",
        "Airline": "Aeromexico, Air Canada, Alaska Airlines, American Airlines, Delta Air Lines, Frontier Airlines, JetBlue Airways, Lufthansa, Southwest Airlines, Spirit Airlines, Sunwing Airlines, United Airlines, Virgin America",
        "DST": "True",
        "UTC": "-5",
        "closestWeatherStationID": "KPHL"
      }
    },
    {
      "airport": {
        "Name": "Phoenix Sky Harbor International Airport",
        "City": "Phoenix",
        "State": "Arizona",
        "Latitude": "33.435756539933",
        "Longitude": "-112.008678326440",
        "ShortCode": "PHX",
        "Precheck": "True",
        "Airline": "Aeromexico, Air Canada, Alaska Airlines, American Airlines, Boutique Airlines, Delta Air Lines, Frontier Airlines, JetBlue Airways, Southwest Airlines, Spirit Airlines, Sun Country Airlines, United Airlines, WestJet",
        "DST": "False",
        "UTC": "-7",
        "closestWeatherStationID": "KPHX"
      }
    },
    {
      "airport": {
        "Name": "Phoenix-Mesa Gateway Airport",
        "City": "Mesa",
        "State": "Arizona",
        "Latitude": "33.307191510681",
        "Longitude": "-111.670086711130",
        "ShortCode": "AZA",
        "Precheck": "True",
        "Airline": "Allegiant Air",
        "DST": "False",
        "UTC": "-7",
        "closestWeatherStationID": "KIWA"
      }
    },
    {
      "airport": {
        "Name": "Piedmont Triad International Airport",
        "City": "Greensboro",
        "State": "North Carolina",
        "Latitude": "36.117101898235",
        "Longitude": "-79.933942377538",
        "ShortCode": "GSO",
        "Precheck": "True",
        "Airline": "American Airlines, Delta Air Lines, United Airlines, Allegiant Air",
        "DST": "True",
        "UTC": "-5",
        "closestWeatherStationID": "KGSO"
      }
    },
    {
      "airport": {
        "Name": "Pierre Regional Airport",
        "City": "Pierre",
        "State": "South Dakota",
        "Latitude": "44.368317764000",
        "Longitude": "-100.350968123000",
        "ShortCode": "PIR",
        "Precheck": "False",
        "Airline": null,
        "DST": "True",
        "UTC": "-6",
        "closestWeatherStationID": "KPIR"
      }
    },
    {
      "airport": {
        "Name": "Pitt-Greenville Airport",
        "City": "Greenville",
        "State": "North Carolina",
        "Latitude": "35.612657398000",
        "Longitude": "-77.366346689000",
        "ShortCode": "PGV",
        "Precheck": "False",
        "Airline": null,
        "DST": "True",
        "UTC": "-5",
        "closestWeatherStationID": "KPGV"
      }
    },
    {
      "airport": {
        "Name": "Pittsburgh International Airport",
        "City": "Pittsburgh",
        "State": "Pennsylvania",
        "Latitude": "40.495919206707",
        "Longitude": "-80.256624495723",
        "ShortCode": "PIT",
        "Precheck": "True",
        "Airline": "Aeromexico, Air Canada, Alaska Airlines, Allegiant Air, American Airlines, Delta Air Lines, JetBlue Airways, OneJet, Southern Airways Express, Southwest Airlines, United Airlines, Virgin America",
        "DST": "True",
        "UTC": "-5",
        "closestWeatherStationID": "KPIT"
      }
    },
    {
      "airport": {
        "Name": "Plattsburgh International Airport",
        "City": "Plattsburgh",
        "State": "New York",
        "Latitude": "44.669309745549",
        "Longitude": "-73.472321086548",
        "ShortCode": "PBG",
        "Precheck": "False",
        "Airline": null,
        "DST": "True",
        "UTC": "-5",
        "closestWeatherStationID": "KPBG"
      }
    },
    {
      "airport": {
        "Name": "Pocatello Regional Airport",
        "City": "Pocatello",
        "State": "Idaho",
        "Latitude": "42.871296137000",
        "Longitude": "-112.445525636000",
        "ShortCode": "PIH",
        "Precheck": "False",
        "Airline": null,
        "DST": "True",
        "UTC": "-7",
        "closestWeatherStationID": "KPIH"
      }
    },
    {
      "airport": {
        "Name": "Portland International Airport",
        "City": "Portland",
        "State": "Oregon",
        "Latitude": "45.585843446819",
        "Longitude": "-122.591283974380",
        "ShortCode": "PDX",
        "Precheck": "True",
        "Airline": "Aeromexico, Air Canada, Alaska Airlines, American Airlines, Boutique Airlines, Delta Air Lines, Frontier Airlines, Hawaiian Airlines, JetBlue Airways, Southwest Airlines, Spirit Airlines, United Airlines, Virgin America",
        "DST": "True",
        "UTC": "-8",
        "closestWeatherStationID": "KPDX"
      }
    },
    {
      "airport": {
        "Name": "Portland International Jetport",
        "City": "Portland",
        "State": "Maine",
        "Latitude": "43.650625900366",
        "Longitude": "-70.309683560447",
        "ShortCode": "PWM",
        "Precheck": "True",
        "Airline": "American Airlines, Delta Air Lines, JetBlue Airways, United Airlines",
        "DST": "True",
        "UTC": "-5",
        "closestWeatherStationID": "KPWM"
      }
    },
    {
      "airport": {
        "Name": "Portsmouth International Airport at Pease",
        "City": "Portsmouth",
        "State": "New Hampshire",
        "Latitude": "43.083084170799",
        "Longitude": "-70.816773758701",
        "ShortCode": "PSM",
        "Precheck": "False",
        "Airline": null,
        "DST": "True",
        "UTC": "-5",
        "closestWeatherStationID": "KPSM"
      }
    },
    {
      "airport": {
        "Name": "Prescott Municipal Airport-Ernest A. Love Field",
        "City": "Prescott",
        "State": "Arizona",
        "Latitude": "34.650954258134",
        "Longitude": "-112.428934242620",
        "ShortCode": "PRC",
        "Precheck": "False",
        "Airline": null,
        "DST": "False",
        "UTC": "-7",
        "closestWeatherStationID": "KPRC"
      }
    },
    {
      "airport": {
        "Name": "Provincetown Municipal Airport",
        "City": "Provincetown",
        "State": "Massachusetts",
        "Latitude": "42.077071138323",
        "Longitude": "-70.216051014342",
        "ShortCode": "PVC",
        "Precheck": "False",
        "Airline": null,
        "DST": "True",
        "UTC": "-5",
        "closestWeatherStationID": "KPVC"
      }
    },
    {
      "airport": {
        "Name": "Provo Municipal Airport",
        "City": "Provo",
        "State": "Utah",
        "Latitude": "40.219623739245",
        "Longitude": "-111.718548779500",
        "ShortCode": "PVU",
        "Precheck": "False",
        "Airline": null,
        "DST": "True",
        "UTC": "-7",
        "closestWeatherStationID": "KPVU"
      }
    },
    {
      "airport": {
        "Name": "Pueblo Memorial Airport",
        "City": "Pueblo",
        "State": "Colorado",
        "Latitude": "40.513838380000",
        "Longitude": "-111.943815666000",
        "ShortCode": "PUB",
        "Precheck": "False",
        "Airline": null,
        "DST": "True",
        "UTC": "-7",
        "closestWeatherStationID": "KPUB"
      }
    },
    {
      "airport": {
        "Name": "Pullman-Moscow Regional Airport",
        "City": "Pullman",
        "State": "Washington",
        "Latitude": "46.731269534000",
        "Longitude": "-117.179618447000",
        "ShortCode": "PUW",
        "Precheck": "False",
        "Airline": null,
        "DST": "True",
        "UTC": "-8",
        "closestWeatherStationID": "KPUW"
      }
    },
    {
      "airport": {
        "Name": "Punta Gorda Airport",
        "City": "Punta Gorda",
        "State": "Florida",
        "Latitude": "26.915835645100",
        "Longitude": "-82.000423640638",
        "ShortCode": "PGD",
        "Precheck": "True",
        "Airline": "Allegiant Air",
        "DST": "True",
        "UTC": "-5",
        "closestWeatherStationID": "KPGD"
      }
    },
    {
      "airport": {
        "Name": "Quad City International Airport",
        "City": "Moline",
        "State": "Illinois",
        "Latitude": "41.457227981687",
        "Longitude": "-90.504237424517",
        "ShortCode": "MLI",
        "Precheck": "True",
        "Airline": "Allegiant Air, American Airlines, Delta Air Lines, United Airlines",
        "DST": "True",
        "UTC": "-6",
        "closestWeatherStationID": "KMLI"
      }
    },
    {
      "airport": {
        "Name": "Quincy Regional Airport",
        "City": "Quincy",
        "State": "Illinois",
        "Latitude": "39.933308532764",
        "Longitude": "-91.194199919790",
        "ShortCode": "UIN",
        "Precheck": "False",
        "Airline": null,
        "DST": "True",
        "UTC": "-6",
        "closestWeatherStationID": "KUIN"
      }
    },
    {
      "airport": {
        "Name": "Rafael Hernandez Airport",
        "City": "Aguadilla",
        "State": "Puerto Rico",
        "Latitude": "48.622956431895",
        "Longitude": "-122.221318039100",
        "ShortCode": "BQN",
        "Precheck": "False",
        "Airline": null,
        "DST": "False",
        "UTC": "-4",
        "closestWeatherStationID": "TJBQ"
      }
    },
    {
      "airport": {
        "Name": "Raleigh County Memorial Airport",
        "City": "Beaver",
        "State": "West Virginia",
        "Latitude": "37.747618903000",
        "Longitude": "-81.142317042000",
        "ShortCode": "BKW",
        "Precheck": "False",
        "Airline": null,
        "DST": "True",
        "UTC": "-5",
        "closestWeatherStationID": "KBKW"
      }
    },
    {
      "airport": {
        "Name": "Raleigh-Durham International Airport",
        "City": "Morrisville",
        "State": "North Carolina",
        "Latitude": "35.873905618051",
        "Longitude": "-78.790960659406",
        "ShortCode": "RDU",
        "Precheck": "True",
        "Airline": "Aeromexico, Air Canada, Allegiant Air, American Airlines, Delta Air Lines, Frontier Airlines, JetBlue Airways, Southwest Airlines, United Airlines",
        "DST": "True",
        "UTC": "-5",
        "closestWeatherStationID": "KRDU"
      }
    },
    {
      "airport": {
        "Name": "Ralph Wien Memorial Airport",
        "City": "Kotzebue",
        "State": "Alaska",
        "Latitude": "66.898326548001",
        "Longitude": "-162.596665827000",
        "ShortCode": "OTZ",
        "Precheck": "False",
        "Airline": null,
        "DST": "True",
        "UTC": "-9",
        "closestWeatherStationID": "PAOT"
      }
    },
    {
      "airport": {
        "Name": "Range Regional Airport",
        "City": "Hibbing",
        "State": "Minnesota",
        "Latitude": "47.394250824617",
        "Longitude": "-92.845027370116",
        "ShortCode": "HIB",
        "Precheck": "False",
        "Airline": null,
        "DST": "True",
        "UTC": "-6",
        "closestWeatherStationID": "KHIB"
      }
    },
    {
      "airport": {
        "Name": "Rapid City Regional Airport",
        "City": "Rapid City",
        "State": "South Dakota",
        "Latitude": "44.037727495429",
        "Longitude": "-103.060149005670",
        "ShortCode": "RAP",
        "Precheck": "True",
        "Airline": "American Airlines, Delta Air Lines, United Airlines, Allegiant Air",
        "DST": "True",
        "UTC": "-7",
        "closestWeatherStationID": "KRAP"
      }
    },
    {
      "airport": {
        "Name": "Reading Regional Airport",
        "City": "Reading",
        "State": "Pennsylvania",
        "Latitude": "40.335649695000",
        "Longitude": "-75.926865954000",
        "ShortCode": "RDG",
        "Precheck": "False",
        "Airline": null,
        "DST": "True",
        "UTC": "-5",
        "closestWeatherStationID": "KRDG"
      }
    },
    {
      "airport": {
        "Name": "Redding Municipal Airport",
        "City": "Redding",
        "State": "California",
        "Latitude": "40.586538427000",
        "Longitude": "-122.391676836000",
        "ShortCode": "RDD",
        "Precheck": "False",
        "Airline": null,
        "DST": "True",
        "UTC": "-8",
        "closestWeatherStationID": "KRDD"
      }
    },
    {
      "airport": {
        "Name": "Redmond Municipal Airport-Roberts Field",
        "City": "Redmond",
        "State": "Oregon",
        "Latitude": "44.272615759000",
        "Longitude": "-121.173918422000",
        "ShortCode": "RDM",
        "Precheck": "False",
        "Airline": null,
        "DST": "True",
        "UTC": "-8",
        "closestWeatherStationID": "KRDM"
      }
    },
    {
      "airport": {
        "Name": "Reno-Tahoe International Airport",
        "City": "Reno",
        "State": "Nevada",
        "Latitude": "39.505909992253",
        "Longitude": "-119.778936685780",
        "ShortCode": "RNO",
        "Precheck": "True",
        "Airline": "Alaska Airlines, Allegiant Air, American Airlines, Delta Air Lines, Southwest Airlines, United Airlines",
        "DST": "True",
        "UTC": "-8",
        "closestWeatherStationID": "KRNO"
      }
    },
    {
      "airport": {
        "Name": "Rhinelander-Oneida County Airport",
        "City": "Rhinelander",
        "State": "Wisconsin",
        "Latitude": "45.625636183764",
        "Longitude": "-89.458807858595",
        "ShortCode": "RHI",
        "Precheck": "True",
        "Airline": "Delta Air Lines",
        "DST": "True",
        "UTC": "-6",
        "closestWeatherStationID": "KRHI"
      }
    },
    {
      "airport": {
        "Name": "Richmond International Airport",
        "City": "Richmond",
        "State": "Virginia",
        "Latitude": "37.508439884494",
        "Longitude": "-77.333308235686",
        "ShortCode": "RIC",
        "Precheck": "True",
        "Airline": "Aeromexico, Allegiant Air, American Airlines, Delta Air Lines, JetBlue Airways, Southwest Airlines, United Airlines",
        "DST": "True",
        "UTC": "-5",
        "closestWeatherStationID": "KRIC"
      }
    },
    {
      "airport": {
        "Name": "Rick Husband Amarillo International Airport",
        "City": "Amarillo",
        "State": "Texas",
        "Latitude": "35.221997572000",
        "Longitude": "-101.831296232000",
        "ShortCode": "AMA",
        "Precheck": "True",
        "Airline": "American Airlines, Southwest Airlines, United Airlines",
        "DST": "True",
        "UTC": "-6",
        "closestWeatherStationID": "KAMA"
      }
    },
    {
      "airport": {
        "Name": "Rickenbacker International Airport",
        "City": "Columbus",
        "State": "Ohio",
        "Latitude": "39.817397531272",
        "Longitude": "-82.935749083453",
        "ShortCode": "LCK",
        "Precheck": "False",
        "Airline": null,
        "DST": "True",
        "UTC": "-5",
        "closestWeatherStationID": "KLCK"
      }
    },
    {
      "airport": {
        "Name": "Riverton Regional Airport",
        "City": "Riverton",
        "State": "Wyoming",
        "Latitude": "43.024957498001",
        "Longitude": "-108.380095974000",
        "ShortCode": "RIW",
        "Precheck": "False",
        "Airline": null,
        "DST": "True",
        "UTC": "-7",
        "closestWeatherStationID": "KRIW"
      }
    },
    {
      "airport": {
        "Name": "Roanoke-Blacksburg Regional Airport",
        "City": "Roanoke",
        "State": "Virginia",
        "Latitude": "37.320568488246",
        "Longitude": "-79.968575457491",
        "ShortCode": "ROA",
        "Precheck": "True",
        "Airline": "Allegiant Air, American Airlines, Delta Air Lines, United Airlines",
        "DST": "True",
        "UTC": "-5",
        "closestWeatherStationID": "KROA"
      }
    },
    {
      "airport": {
        "Name": "Rochester International Airport",
        "City": "Rochester",
        "State": "Minnesota",
        "Latitude": "43.910664314208",
        "Longitude": "-92.490137369243",
        "ShortCode": "RST",
        "Precheck": "True",
        "Airline": "American Airlines, Delta Air Lines, United Airlines",
        "DST": "True",
        "UTC": "-6",
        "closestWeatherStationID": "KRST"
      }
    },
    {
      "airport": {
        "Name": "Rocks Springs-Sweetwater County Airport",
        "City": "Rock Springs",
        "State": "Wyoming",
        "Latitude": "41.587456588000",
        "Longitude": "-109.202897444000",
        "ShortCode": "RKS",
        "Precheck": "False",
        "Airline": null,
        "DST": "True",
        "UTC": "-7",
        "closestWeatherStationID": "KRKS"
      }
    },
    {
      "airport": {
        "Name": "Rogue Valley International-Medford Airport",
        "City": "Medford",
        "State": "Oregon",
        "Latitude": "42.364401346646",
        "Longitude": "-122.872027677530",
        "ShortCode": "MFR",
        "Precheck": "True",
        "Airline": "American Airlines, Delta Air Lines, United Airlines, Alaska Airlines, Allegiant Air",
        "DST": "True",
        "UTC": "-8",
        "closestWeatherStationID": "KMFR"
      }
    },
    {
      "airport": {
        "Name": "Ronald Reagan Washington National Airport",
        "City": "Arlington",
        "State": "Virginia",
        "Latitude": "38.853720846741",
        "Longitude": "-77.043847443504",
        "ShortCode": "DCA",
        "Precheck": "True",
        "Airline": "Air Canada, Alaska Airlines, American Airlines, Delta Air Lines, Frontier Airlines, JetBlue Airways, Southwest Airlines, Sun Country Airlines, United Airlines, Virgin America",
        "DST": "True",
        "UTC": "-5",
        "closestWeatherStationID": "KDCA"
      }
    },
    {
      "airport": {
        "Name": "Roswell International Air Center",
        "City": "Roswell",
        "State": "New Mexico",
        "Latitude": "33.299869700000",
        "Longitude": "-104.529397600000",
        "ShortCode": "ROW",
        "Precheck": "False",
        "Airline": null,
        "DST": "True",
        "UTC": "-7",
        "closestWeatherStationID": "KROW"
      }
    },
    {
      "airport": {
        "Name": "Rota International Airport",
        "City": "Rota Island",
        "State": "Guam",
        "Latitude": "14.174355200000",
        "Longitude": "145.241125300000",
        "ShortCode": "ROP",
        "Precheck": "False",
        "Airline": null,
        "DST": "False",
        "UTC": "10",
        "closestWeatherStationID": "PGRO"
      }
    },
    {
      "airport": {
        "Name": "Rutland-Southern Vermont Regional Airport",
        "City": "North Clarendon",
        "State": "Vermont",
        "Latitude": "43.529151361747",
        "Longitude": "-72.944652108407",
        "ShortCode": "RUT",
        "Precheck": "False",
        "Airline": null,
        "DST": "True",
        "UTC": "-5",
        "closestWeatherStationID": "KRUT"
      }
    },
    {
      "airport": {
        "Name": "Sacramento International Airport",
        "City": "Sacramento",
        "State": "California",
        "Latitude": "38.683801003115",
        "Longitude": "-121.590721441440",
        "ShortCode": "SMF",
        "Precheck": "True",
        "Airline": "Aeromexico, Alaska Airlines, American Airlines, Delta Air Lines, Hawaiian Airlines, JetBlue Airways, Southwest Airlines, United Airlines",
        "DST": "True",
        "UTC": "-8",
        "closestWeatherStationID": "KSMF"
      }
    },
    {
      "airport": {
        "Name": "Saint George Regional Airport",
        "City": "Saint George",
        "State": "Utah",
        "Latitude": "37.104149016000",
        "Longitude": "-113.584118076000",
        "ShortCode": "SGU",
        "Precheck": "True",
        "Airline": "American Airlines, Delta Air Lines, United Airlines",
        "DST": "True",
        "UTC": "-7",
        "closestWeatherStationID": "KSGU"
      }
    },
    {
      "airport": {
        "Name": "Saipan International Airport",
        "City": "Saipan Island",
        "State": "Northern Mariana Islands",
        "Latitude": "15.119748100000",
        "Longitude": "145.726090200000",
        "ShortCode": "SPN",
        "Precheck": "False",
        "Airline": null,
        "DST": "False",
        "UTC": "10",
        "closestWeatherStationID": "PGSN"
      }
    },
    {
      "airport": {
        "Name": "Salina Municipal Airport",
        "City": "Salina",
        "State": "Kansas",
        "Latitude": "38.840279421000",
        "Longitude": "-97.611417779000",
        "ShortCode": "SLN",
        "Precheck": "False",
        "Airline": null,
        "DST": "True",
        "UTC": "-6",
        "closestWeatherStationID": "KSLN"
      }
    },
    {
      "airport": {
        "Name": "Salisbury-Ocean City: Wicomico Regional Airport",
        "City": "Salisbury",
        "State": "Maryland",
        "Latitude": "38.360666991000",
        "Longitude": "-75.599367022000",
        "ShortCode": "SBY",
        "Precheck": "False",
        "Airline": null,
        "DST": "True",
        "UTC": "-5",
        "closestWeatherStationID": "KSBY"
      }
    },
    {
      "airport": {
        "Name": "Salt Lake City International Airport",
        "City": "Salt Lake City",
        "State": "Utah",
        "Latitude": "40.783535748377",
        "Longitude": "-111.980765905320",
        "ShortCode": "SLC",
        "Precheck": "True",
        "Airline": "American Airlines, Delta Air Lines, Southwest Airlines, United Airlines, Alaska Airlines, JetBlue Airways, Aeromexico, Frontier Airlines, Boutique Airlines, KLM Royal Dutch Airlines",
        "DST": "True",
        "UTC": "-7",
        "closestWeatherStationID": "KSLC"
      }
    },
    {
      "airport": {
        "Name": "San Angelo Regional Airport",
        "City": "San Angelo",
        "State": "Texas",
        "Latitude": "31.357315298164",
        "Longitude": "-100.503239217320",
        "ShortCode": "SJT",
        "Precheck": "True",
        "Airline": "American Airlines",
        "DST": "True",
        "UTC": "-6",
        "closestWeatherStationID": "KSJT"
      }
    },
    {
      "airport": {
        "Name": "San Antonio International Airport",
        "City": "San Antonio",
        "State": "Texas",
        "Latitude": "29.531201900000",
        "Longitude": "-98.470537100000",
        "ShortCode": "SAT",
        "Precheck": "True",
        "Airline": "Aeromexico, Alaska Airlines, Allegiant Air, American Airlines, Delta Air Lines, Southwest Airlines, United Airlines",
        "DST": "True",
        "UTC": "-6",
        "closestWeatherStationID": "KSAT"
      }
    },
    {
      "airport": {
        "Name": "San Diego International Airport",
        "City": "San Diego",
        "State": "California",
        "Latitude": "32.729993824157",
        "Longitude": "-117.191414296030",
        "ShortCode": "SAN",
        "Precheck": "True",
        "Airline": "Air Canada, Alaska Airlines, Allegiant Air, American Airlines, Delta Air Lines, Hawaiian Airlines, JetBlue Airways, Southwest Airlines, Spirit Airlines, Sun Country Airlines, United Airlines, Virgin America, WestJet",
        "DST": "True",
        "UTC": "-8",
        "closestWeatherStationID": "KSAN"
      }
    },
    {
      "airport": {
        "Name": "San Francisco International Airport",
        "City": "San Francisco",
        "State": "California",
        "Latitude": "37.623953921637",
        "Longitude": "-122.395615141230",
        "ShortCode": "SFO",
        "Precheck": "True",
        "Airline": "American Airlines, Delta Air Lines, Southwest Airlines, United Airlines, Virgin America, Air Canada, Alaska Airlines, Hawaiian Airlines, JetBlue Airways, Sun Country Airlines, WestJet, Aeromexico, Etihad Airways, Lufthansa, Frontier Airlines, Avianca, Virgin Atlantic, Emirates, Turkish Airlines, Singapore Airlines, Copa Airlines, Korean Air, All Nippon Airways, Finnair, Cathay Pacific Airways, Air France, KLM Royal Dutch Airlines, Philippine Airlines",
        "DST": "True",
        "UTC": "-8",
        "closestWeatherStationID": "KSFO"
      }
    },
    {
      "airport": {
        "Name": "San Luis Obispo County Regional Airport",
        "City": "San Luis Obispo",
        "State": "California",
        "Latitude": "35.282746680000",
        "Longitude": "-120.659618570000",
        "ShortCode": "SBP",
        "Precheck": "False",
        "Airline": null,
        "DST": "True",
        "UTC": "-8",
        "closestWeatherStationID": "KSBP"
      }
    },
    {
      "airport": {
        "Name": "San Luis Valley Regional Airport",
        "City": "Alamosa",
        "State": "Colorado",
        "Latitude": "37.469449093000",
        "Longitude": "-105.870016264000",
        "ShortCode": "ALS",
        "Precheck": "False",
        "Airline": null,
        "DST": "True",
        "UTC": "-7",
        "closestWeatherStationID": "KALS"
      }
    },
    {
      "airport": {
        "Name": "Santa Barbara Municipal Airport",
        "City": "Santa Barbara",
        "State": "California",
        "Latitude": "34.425909649512",
        "Longitude": "-119.832399481150",
        "ShortCode": "SBA",
        "Precheck": "True",
        "Airline": "Alaska Airlines, American Airlines, United Airlines",
        "DST": "True",
        "UTC": "-8",
        "closestWeatherStationID": "KSBA"
      }
    },
    {
      "airport": {
        "Name": "Santa Fe Regional Airport",
        "City": "Santa Fe",
        "State": "New Mexico",
        "Latitude": "35.686977302000",
        "Longitude": "-105.937798248000",
        "ShortCode": "SAF",
        "Precheck": "True",
        "Airline": "American Airlines, United Airlines",
        "DST": "True",
        "UTC": "-7",
        "closestWeatherStationID": "KSAF"
      }
    },
    {
      "airport": {
        "Name": "Santa Maria Public Airport District",
        "City": "Santa Maria",
        "State": "California",
        "Latitude": "34.887146702759",
        "Longitude": "-120.429345400270",
        "ShortCode": "SMX",
        "Precheck": "False",
        "Airline": null,
        "DST": "True",
        "UTC": "-8",
        "closestWeatherStationID": "KSMX"
      }
    },
    {
      "airport": {
        "Name": "Sarasota-Bradenton International Airport",
        "City": "Sarasota",
        "State": "Florida",
        "Latitude": "27.386851517085",
        "Longitude": "-82.551691808629",
        "ShortCode": "SRQ",
        "Precheck": "True",
        "Airline": "Air Canada, American Airlines, Delta Air Lines, JetBlue Airways, United Airlines, WestJet",
        "DST": "True",
        "UTC": "-5",
        "closestWeatherStationID": "KSRQ"
      }
    },
    {
      "airport": {
        "Name": "Savannah/Hilton Head International Airport",
        "City": "Savannah",
        "State": "Georgia",
        "Latitude": "32.138218482498",
        "Longitude": "-81.218509817074",
        "ShortCode": "SAV",
        "Precheck": "True",
        "Airline": "Allegiant Air, American Airlines, Delta Air Lines, JetBlue Airways, United Airlines",
        "DST": "True",
        "UTC": "-5",
        "closestWeatherStationID": "KSAV"
      }
    },
    {
      "airport": {
        "Name": "Sawyer International Airport",
        "City": "Gwinn",
        "State": "Michigan",
        "Latitude": "46.281057493001",
        "Longitude": "-87.440965987000",
        "ShortCode": "MQT",
        "Precheck": "False",
        "Airline": null,
        "DST": "True",
        "UTC": "-6",
        "closestWeatherStationID": "KSAW"
      }
    },
    {
      "airport": {
        "Name": "Seattle-Tacoma International Airport",
        "City": "Seattle",
        "State": "Washington",
        "Latitude": "47.440568519822",
        "Longitude": "-122.296130229030",
        "ShortCode": "SEA",
        "Precheck": "True",
        "Airline": "American Airlines, Delta Air Lines, Southwest Airlines, United Airlines, Virgin America, Air Canada, Alaska Airlines, Hawaiian Airlines, JetBlue Airways, Sun Country Airlines, Aeromexico, Lufthansa, Emirates, Spirit Airlines, Korean Air, All Nippon Airways",
        "DST": "True",
        "UTC": "-8",
        "closestWeatherStationID": "KSEA"
      }
    },
    {
      "airport": {
        "Name": "Shenandoah Valley Regional Airport",
        "City": "Weyers Cave",
        "State": "Virginia",
        "Latitude": "38.288457400000",
        "Longitude": "-78.913079904000",
        "ShortCode": "SHD",
        "Precheck": "False",
        "Airline": null,
        "DST": "True",
        "UTC": "-5",
        "closestWeatherStationID": "KSHD"
      }
    },
    {
      "airport": {
        "Name": "Sheridan County Airport",
        "City": "Sheridan",
        "State": "Wyoming",
        "Latitude": "44.797188199000",
        "Longitude": "-106.956179358000",
        "ShortCode": "SHR",
        "Precheck": "False",
        "Airline": null,
        "DST": "True",
        "UTC": "-7",
        "closestWeatherStationID": "KSHR"
      }
    },
    {
      "airport": {
        "Name": "Show Low Regional Airport",
        "City": "Show Low",
        "State": "Arizona",
        "Latitude": "34.254209971000",
        "Longitude": "-110.029829548000",
        "ShortCode": "SOW",
        "Precheck": "False",
        "Airline": null,
        "DST": "False",
        "UTC": "-7",
        "closestWeatherStationID": "KSOW"
      }
    },
    {
      "airport": {
        "Name": "Shreveport Regional Airport",
        "City": "Shreveport",
        "State": "Louisiana",
        "Latitude": "32.456695602821",
        "Longitude": "-93.827220724156",
        "ShortCode": "SHV",
        "Precheck": "True",
        "Airline": "Allegiant Air",
        "DST": "True",
        "UTC": "-6",
        "closestWeatherStationID": "KSHV"
      }
    },
    {
      "airport": {
        "Name": "Sidney-Richland Municipal Airport",
        "City": "Sidney",
        "State": "Montana",
        "Latitude": "47.711362171528",
        "Longitude": "-104.184570260010",
        "ShortCode": "SDY",
        "Precheck": "False",
        "Airline": null,
        "DST": "True",
        "UTC": "-7",
        "closestWeatherStationID": "KSDY"
      }
    },
    {
      "airport": {
        "Name": "Sioux Falls Regional Airport",
        "City": "Sioux Falls",
        "State": "South Dakota",
        "Latitude": "43.581688252012",
        "Longitude": "-96.731844358729",
        "ShortCode": "FSD",
        "Precheck": "True",
        "Airline": "Allegiant Air, American Airlines, Delta Air Lines, United Airlines",
        "DST": "True",
        "UTC": "-6",
        "closestWeatherStationID": "KFSD"
      }
    },
    {
      "airport": {
        "Name": "Sioux Gateway Airport",
        "City": "Sioux City",
        "State": "Iowa",
        "Latitude": "42.427163403569",
        "Longitude": "-96.376176312986",
        "ShortCode": "SUX",
        "Precheck": "False",
        "Airline": null,
        "DST": "True",
        "UTC": "-6",
        "closestWeatherStationID": "KSUX"
      }
    },
    {
      "airport": {
        "Name": "Sitka Rocky Gutierrez Airport",
        "City": "Sitka",
        "State": "Alaska",
        "Latitude": "57.053056394000",
        "Longitude": "-135.329999458000",
        "ShortCode": "SIT",
        "Precheck": "False",
        "Airline": null,
        "DST": "True",
        "UTC": "-9",
        "closestWeatherStationID": "PASI"
      }
    },
    {
      "airport": {
        "Name": "Sloulin Field International Airport",
        "City": "Williston",
        "State": "North Dakota",
        "Latitude": "48.146969879000",
        "Longitude": "-103.617966151000",
        "ShortCode": "ISN",
        "Precheck": "True",
        "Airline": "Delta Air Lines, United Airlines",
        "DST": "True",
        "UTC": "-6",
        "closestWeatherStationID": "KISN"
      }
    },
    {
      "airport": {
        "Name": "South Bend International Airport",
        "City": "South Bend",
        "State": "Indiana",
        "Latitude": "41.700614942427",
        "Longitude": "-86.310705328287",
        "ShortCode": "SBN",
        "Precheck": "True",
        "Airline": "Allegiant Air, Delta Air Lines, United Airlines",
        "DST": "True",
        "UTC": "-5",
        "closestWeatherStationID": "KSBN"
      }
    },
    {
      "airport": {
        "Name": "Southeast Iowa Regional Airport",
        "City": "Burlington",
        "State": "Iowa",
        "Latitude": "40.807536312000",
        "Longitude": "-91.112919072000",
        "ShortCode": "BRL",
        "Precheck": "False",
        "Airline": null,
        "DST": "True",
        "UTC": "-6",
        "closestWeatherStationID": "KBRL"
      }
    },
    {
      "airport": {
        "Name": "Southwest Florida International Airport",
        "City": "Fort Myers",
        "State": "Florida",
        "Latitude": "26.522399137411",
        "Longitude": "-81.753696056427",
        "ShortCode": "RSW",
        "Precheck": "True",
        "Airline": "Air Canada, American Airlines, Delta Air Lines, JetBlue Airways, Silver Airways, Southwest Airlines, Spirit Airlines, Sun Country Airlines, United Airlines, WestJet",
        "DST": "True",
        "UTC": "-5",
        "closestWeatherStationID": "KRSW"
      }
    },
    {
      "airport": {
        "Name": "Southwest Georgia Regional Airport",
        "City": "Albany",
        "State": "Georgia",
        "Latitude": "31.532158374211",
        "Longitude": "-84.187195123355",
        "ShortCode": "ABY",
        "Precheck": "False",
        "Airline": null,
        "DST": "True",
        "UTC": "-5",
        "closestWeatherStationID": "KABY"
      }
    },
    {
      "airport": {
        "Name": "Southwest Oregon Regional Airport",
        "City": "North Bend",
        "State": "Oregon",
        "Latitude": "43.406496633000",
        "Longitude": "-124.224278678000",
        "ShortCode": "OTH",
        "Precheck": "False",
        "Airline": null,
        "DST": "True",
        "UTC": "-8",
        "closestWeatherStationID": "KOTH"
      }
    },
    {
      "airport": {
        "Name": "Spokane International Airport",
        "City": "Spokane",
        "State": "Washington",
        "Latitude": "47.625402884836",
        "Longitude": "-117.537297860010",
        "ShortCode": "GEG",
        "Precheck": "True",
        "Airline": "Aeromexico, Alaska Airlines, American Airlines, Delta Air Lines, Southwest Airlines, United Airlines",
        "DST": "True",
        "UTC": "-8",
        "closestWeatherStationID": "KGEG"
      }
    },
    {
      "airport": {
        "Name": "Springfield-Branson National Airport",
        "City": "Springfield",
        "State": "Missouri",
        "Latitude": "37.238157336393",
        "Longitude": "-93.397141832529",
        "ShortCode": "SGF",
        "Precheck": "True",
        "Airline": "Allegiant Air",
        "DST": "True",
        "UTC": "-6",
        "closestWeatherStationID": "KSGF"
      }
    },
    {
      "airport": {
        "Name": "St. Cloud Regional Airport",
        "City": "St Cloud",
        "State": "Minnesota",
        "Latitude": "45.546999350741",
        "Longitude": "-94.068848871777",
        "ShortCode": "STC",
        "Precheck": "False",
        "Airline": null,
        "DST": "True",
        "UTC": "-6",
        "closestWeatherStationID": "KSTC"
      }
    },
    {
      "airport": {
        "Name": "St. Pete-Clearwater International Airport",
        "City": "Clearwater",
        "State": "Florida",
        "Latitude": "27.906557351941",
        "Longitude": "-82.692501369242",
        "ShortCode": "PIE",
        "Precheck": "True",
        "Airline": "Allegiant Air, Sunwing Airlines",
        "DST": "True",
        "UTC": "-5",
        "closestWeatherStationID": "KPIE"
      }
    },
    {
      "airport": {
        "Name": "Stewart International Airport",
        "City": "New Windsor",
        "State": "New York",
        "Latitude": "41.501498019519",
        "Longitude": "-74.100527666618",
        "ShortCode": "SWF",
        "Precheck": "False",
        "Airline": null,
        "DST": "True",
        "UTC": "-5",
        "closestWeatherStationID": "KSWF"
      }
    },
    {
      "airport": {
        "Name": "Stillwater Regional Airport",
        "City": "Stillwater",
        "State": "Oklahoma",
        "Latitude": "36.161388900000",
        "Longitude": "-97.085888900000",
        "ShortCode": "SWO",
        "Precheck": "False",
        "Airline": null,
        "DST": "True",
        "UTC": "-6",
        "closestWeatherStationID": "KSWO"
      }
    },
    {
      "airport": {
        "Name": "Stockton Metropolitan Airport",
        "City": "Stockton",
        "State": "California",
        "Latitude": "37.897033000674",
        "Longitude": "-121.252767735040",
        "ShortCode": "SCK",
        "Precheck": "False",
        "Airline": null,
        "DST": "True",
        "UTC": "-8",
        "closestWeatherStationID": "KSCK"
      }
    },
    {
      "airport": {
        "Name": "Syracuse Hancock International Airport",
        "City": "Syracuse",
        "State": "New York",
        "Latitude": "43.113004925538",
        "Longitude": "-76.112017249096",
        "ShortCode": "SYR",
        "Precheck": "True",
        "Airline": "Aeromexico, Air Canada, Allegiant Air, American Airlines, Delta Air Lines, JetBlue Airways, United Airlines",
        "DST": "True",
        "UTC": "-5",
        "closestWeatherStationID": "KSYR"
      }
    },
    {
      "airport": {
        "Name": "T. F. Green Airport",
        "City": "Warwick",
        "State": "Rhode Island",
        "Latitude": "41.727207779317",
        "Longitude": "-71.438558840317",
        "ShortCode": "PVD",
        "Precheck": "True",
        "Airline": "American Airlines, Delta Air Lines, JetBlue Airways, Southwest Airlines, United Airlines",
        "DST": "True",
        "UTC": "-5",
        "closestWeatherStationID": "KPVD"
      }
    },
    {
      "airport": {
        "Name": "Tallahassee International Airport",
        "City": "Tallahassee",
        "State": "Florida",
        "Latitude": "30.438256167000",
        "Longitude": "-84.280729983000",
        "ShortCode": "TLH",
        "Precheck": "True",
        "Airline": "American Airlines, Delta Air Lines, Silver Airways",
        "DST": "True",
        "UTC": "-5",
        "closestWeatherStationID": "KTLH"
      }
    },
    {
      "airport": {
        "Name": "Tampa International Airport",
        "City": "Tampa",
        "State": "Florida",
        "Latitude": "27.966770175304",
        "Longitude": "-82.493079096822",
        "ShortCode": "TPA",
        "Precheck": "True",
        "Airline": "Aeromexico, Air Canada, American Airlines, Copa Airlines, Delta Air Lines, JetBlue Airways, Lufthansa, Silver Airways, Southwest Airlines, Spirit Airlines, Sun Country Airlines, United Airlines, WestJet",
        "DST": "True",
        "UTC": "-5",
        "closestWeatherStationID": "KTPA"
      }
    },
    {
      "airport": {
        "Name": "Ted Stevens Anchorage International Airport",
        "City": "Anchorage",
        "State": "Alaska",
        "Latitude": "61.173721416911",
        "Longitude": "-149.981038014590",
        "ShortCode": "ANC",
        "Precheck": "True",
        "Airline": "Aeromexico, Air Canada, Alaska Airlines, American Airlines, Delta Air Lines, JetBlue Airways, Sun Country Airlines, United Airlines, Virgin America",
        "DST": "True",
        "UTC": "-9",
        "closestWeatherStationID": "PANC"
      }
    },
    {
      "airport": {
        "Name": "Telluride Regional Airport",
        "City": "Telluride",
        "State": "Colorado",
        "Latitude": "37.937488551000",
        "Longitude": "-107.812286872000",
        "ShortCode": "TEX",
        "Precheck": "False",
        "Airline": null,
        "DST": "True",
        "UTC": "-7",
        "closestWeatherStationID": "KTEX"
      }
    },
    {
      "airport": {
        "Name": "Texarkana Regional Airport",
        "City": "Texarkana",
        "State": "Arkansas",
        "Latitude": "33.457413434284",
        "Longitude": "-93.994622628830",
        "ShortCode": "TXK",
        "Precheck": "True",
        "Airline": "American Airlines",
        "DST": "True",
        "UTC": "-6",
        "closestWeatherStationID": "KTXK"
      }
    },
    {
      "airport": {
        "Name": "The Eastern Iowa Airport",
        "City": "Cedar Rapids",
        "State": "Iowa",
        "Latitude": "41.919618292251",
        "Longitude": "-91.653670839437",
        "ShortCode": "CID",
        "Precheck": "True",
        "Airline": "American Airlines, Delta Air Lines, United Airlines, Allegiant Air, Frontier Airlines",
        "DST": "True",
        "UTC": "-6",
        "closestWeatherStationID": "KCID"
      }
    },
    {
      "airport": {
        "Name": "Thief River Falls Regional Airport",
        "City": "Thief River Falls",
        "State": "Minnesota",
        "Latitude": "48.119139849000",
        "Longitude": "-96.181147727000",
        "ShortCode": "TVF",
        "Precheck": "True",
        "Airline": "Boutique Airlines",
        "DST": "True",
        "UTC": "-6",
        "closestWeatherStationID": "KTVF"
      }
    },
    {
      "airport": {
        "Name": "Toledo Express Airport",
        "City": "Swanton",
        "State": "Ohio",
        "Latitude": "41.594423793824",
        "Longitude": "-83.809600320098",
        "ShortCode": "TOL",
        "Precheck": "False",
        "Airline": null,
        "DST": "True",
        "UTC": "-5",
        "closestWeatherStationID": "KTOL"
      }
    },
    {
      "airport": {
        "Name": "Topeka Regional Airport",
        "City": "Berryton",
        "State": "Kansas",
        "Latitude": "38.940836496000",
        "Longitude": "-95.631647500000",
        "ShortCode": "FOE",
        "Precheck": "False",
        "Airline": null,
        "DST": "True",
        "UTC": "-6",
        "closestWeatherStationID": "KFOE"
      }
    },
    {
      "airport": {
        "Name": "Trenton-Mercer Airport",
        "City": "Ewing Township",
        "State": "New Jersey",
        "Latitude": "40.258436549000",
        "Longitude": "-74.799608007000",
        "ShortCode": "TTN",
        "Precheck": "False",
        "Airline": null,
        "DST": "True",
        "UTC": "-5",
        "closestWeatherStationID": "KTTN"
      }
    },
    {
      "airport": {
        "Name": "Tri-Cities Airport",
        "City": "Pasco",
        "State": "Washington",
        "Latitude": "46.256046452683",
        "Longitude": "-119.116624341440",
        "ShortCode": "PSC",
        "Precheck": "True",
        "Airline": "American Airlines, Delta Air Lines, Allegiant Air",
        "DST": "True",
        "UTC": "-8",
        "closestWeatherStationID": "KPSC"
      }
    },
    {
      "airport": {
        "Name": "Tri-Cities Regional Airport",
        "City": "Blountville",
        "State": "Tennessee",
        "Latitude": "36.475186600000",
        "Longitude": "-82.407494100000",
        "ShortCode": "TRI",
        "Precheck": "False",
        "Airline": null,
        "DST": "True",
        "UTC": "-5",
        "closestWeatherStationID": "KTRI"
      }
    },
    {
      "airport": {
        "Name": "Tri-State Airport",
        "City": "Huntington",
        "State": "West Virginia",
        "Latitude": "38.362304024113",
        "Longitude": "-82.522868417443",
        "ShortCode": "HTS",
        "Precheck": "True",
        "Airline": "Allegiant Air, American Airlines",
        "DST": "True",
        "UTC": "-5",
        "closestWeatherStationID": "KHTS"
      }
    },
    {
      "airport": {
        "Name": "Tucson International Airport",
        "City": "Tucson",
        "State": "Arizona",
        "Latitude": "32.121035506684",
        "Longitude": "-110.937551098900",
        "ShortCode": "TUS",
        "Precheck": "True",
        "Airline": "Alaska Airlines, American Airlines, Delta Air Lines, Southwest Airlines, United Airlines",
        "DST": "False",
        "UTC": "-7",
        "closestWeatherStationID": "KTUS"
      }
    },
    {
      "airport": {
        "Name": "Tulsa International Airport",
        "City": "Tulsa",
        "State": "Oklahoma",
        "Latitude": "36.191557331607",
        "Longitude": "-95.892707451287",
        "ShortCode": "TUL",
        "Precheck": "True",
        "Airline": "Allegiant Air, American Airlines, Delta Air Lines, Southwest Airlines, United Airlines",
        "DST": "True",
        "UTC": "-6",
        "closestWeatherStationID": "KTUL"
      }
    },
    {
      "airport": {
        "Name": "Tupelo Regional Airport",
        "City": "Tupelo",
        "State": "Mississippi",
        "Latitude": "34.257607169000",
        "Longitude": "-88.703387437000",
        "ShortCode": "TUP",
        "Precheck": "False",
        "Airline": null,
        "DST": "True",
        "UTC": "-6",
        "closestWeatherStationID": "KTUP"
      }
    },
    {
      "airport": {
        "Name": "Tweed New Haven Airport",
        "City": "East Haven",
        "State": "Connecticut",
        "Latitude": "41.277069637000",
        "Longitude": "-72.869805792000",
        "ShortCode": "HVN",
        "Precheck": "False",
        "Airline": null,
        "DST": "True",
        "UTC": "-5",
        "closestWeatherStationID": "KHVN"
      }
    },
    {
      "airport": {
        "Name": "Tyler Pounds Regional Airport",
        "City": "Tyler",
        "State": "Texas",
        "Latitude": "32.351256873000",
        "Longitude": "-95.301057342000",
        "ShortCode": "TYR",
        "Precheck": "True",
        "Airline": "American Airlines",
        "DST": "True",
        "UTC": "-6",
        "closestWeatherStationID": "KTYR"
      }
    },
    {
      "airport": {
        "Name": "University of Illinois Willard Airport",
        "City": "Savoy",
        "State": "Illinois",
        "Latitude": "40.223705649597",
        "Longitude": "-88.274878691098",
        "ShortCode": "CMI",
        "Precheck": "True",
        "Airline": "American Airlines",
        "DST": "True",
        "UTC": "-6",
        "closestWeatherStationID": "KCMI"
      }
    },
    {
      "airport": {
        "Name": "University Park Airport",
        "City": "State College",
        "State": "Pennsylvania",
        "Latitude": "40.793398566000",
        "Longitude": "-77.859997874000",
        "ShortCode": "SCE",
        "Precheck": "False",
        "Airline": null,
        "DST": "True",
        "UTC": "-5",
        "closestWeatherStationID": "KUNV"
      }
    },
    {
      "airport": {
        "Name": "Valdez Airport",
        "City": "Valdez",
        "State": "Alaska",
        "Latitude": "61.130828459000",
        "Longitude": "-146.348328995000",
        "ShortCode": "VDZ",
        "Precheck": "False",
        "Airline": null,
        "DST": "True",
        "UTC": "-9",
        "closestWeatherStationID": "PAVD"
      }
    },
    {
      "airport": {
        "Name": "Valdosta Regional Airport",
        "City": "Valdosta",
        "State": "Georgia",
        "Latitude": "30.832695657000",
        "Longitude": "-83.278488940000",
        "ShortCode": "VLD",
        "Precheck": "False",
        "Airline": null,
        "DST": "True",
        "UTC": "-5",
        "closestWeatherStationID": "KVLD"
      }
    },
    {
      "airport": {
        "Name": "Valley International Airport",
        "City": "Harlingen",
        "State": "Texas",
        "Latitude": "26.221721660727",
        "Longitude": "-97.662936307764",
        "ShortCode": "HRL",
        "Precheck": "True",
        "Airline": "Delta Air Lines, Southwest Airlines, Sun Country Airlines, United Airlines",
        "DST": "True",
        "UTC": "-6",
        "closestWeatherStationID": "KHRL"
      }
    },
    {
      "airport": {
        "Name": "Venango Regional Airport",
        "City": "Franklin",
        "State": "Pennsylvania",
        "Latitude": "41.397838918000",
        "Longitude": "-79.831439393000",
        "ShortCode": "FKL",
        "Precheck": "False",
        "Airline": null,
        "DST": "True",
        "UTC": "-5",
        "closestWeatherStationID": "KFKL"
      }
    },
    {
      "airport": {
        "Name": "Vero Beach Regional Airport",
        "City": "Vero Beach",
        "State": "Florida",
        "Latitude": "27.655555600000",
        "Longitude": "-80.417944400000",
        "ShortCode": "VRB",
        "Precheck": "False",
        "Airline": null,
        "DST": "True",
        "UTC": "-5",
        "closestWeatherStationID": "KVRB"
      }
    },
    {
      "airport": {
        "Name": "Victoria Regional Airport",
        "City": "Victoria",
        "State": "Texas",
        "Latitude": "28.805265608000",
        "Longitude": "-97.003598228000",
        "ShortCode": "VCT",
        "Precheck": "False",
        "Airline": null,
        "DST": "True",
        "UTC": "-6",
        "closestWeatherStationID": "KVCT"
      }
    },
    {
      "airport": {
        "Name": "Waco Regional Airport",
        "City": "Waco",
        "State": "Texas",
        "Latitude": "31.608210057449",
        "Longitude": "-97.222558259555",
        "ShortCode": "ACT",
        "Precheck": "True",
        "Airline": "American Airlines",
        "DST": "True",
        "UTC": "-6",
        "closestWeatherStationID": "KACT"
      }
    },
    {
      "airport": {
        "Name": "Walla Walla Regional Airport",
        "City": "Walla Walla",
        "State": "Washington",
        "Latitude": "46.064577208000",
        "Longitude": "-118.343017187000",
        "ShortCode": "ALW",
        "Precheck": "False",
        "Airline": null,
        "DST": "True",
        "UTC": "-8",
        "closestWeatherStationID": "KALW"
      }
    },
    {
      "airport": {
        "Name": "Washington Dulles International Airport",
        "City": "Sterling",
        "State": "Virginia",
        "Latitude": "38.954221401997",
        "Longitude": "-77.443918552099",
        "ShortCode": "IAD",
        "Precheck": "True",
        "Airline": "American Airlines, Delta Air Lines, Southwest Airlines, United Airlines, Virgin America, Air Canada, Alaska Airlines, JetBlue Airways, Aeromexico, Etihad Airways, Lufthansa, Avianca, Virgin Atlantic, Emirates, Southern Airways Express, Turkish Airlines, Copa Airlines, Korean Air, All Nippon Airways, Air France, Brussels Airlines, KLM Royal Dutch Airlines",
        "DST": "True",
        "UTC": "-5",
        "closestWeatherStationID": "KIAD"
      }
    },
    {
      "airport": {
        "Name": "Waterloo Regional Airport",
        "City": "Waterloo",
        "State": "Iowa",
        "Latitude": "42.492758235000",
        "Longitude": "-92.342956897000",
        "ShortCode": "ALO",
        "Precheck": "False",
        "Airline": null,
        "DST": "True",
        "UTC": "-6",
        "closestWeatherStationID": "KALO"
      }
    },
    {
      "airport": {
        "Name": "Watertown International Airport",
        "City": "Dexter",
        "State": "New York",
        "Latitude": "44.007836760000",
        "Longitude": "-76.044368525000",
        "ShortCode": "ART",
        "Precheck": "False",
        "Airline": null,
        "DST": "True",
        "UTC": "-5",
        "closestWeatherStationID": "KART"
      }
    },
    {
      "airport": {
        "Name": "Watertown Regional Airport",
        "City": "Watertown",
        "State": "South Dakota",
        "Latitude": "44.922224720296",
        "Longitude": "-97.161779134898",
        "ShortCode": "ATY",
        "Precheck": "False",
        "Airline": null,
        "DST": "True",
        "UTC": "-6",
        "closestWeatherStationID": "KATY"
      }
    },
    {
      "airport": {
        "Name": "Wayneville-St. Robert Regional Airport",
        "City": "Fort Leonard Wood",
        "State": "Missouri",
        "Latitude": "31.620482227674",
        "Longitude": "-97.083638215031",
        "ShortCode": "TBN",
        "Precheck": "False",
        "Airline": null,
        "DST": "True",
        "UTC": "-6",
        "closestWeatherStationID": "KTBN"
      }
    },
    {
      "airport": {
        "Name": "Wendover Airport",
        "City": "Wendover",
        "State": "Utah",
        "Latitude": "40.737149059001",
        "Longitude": "-114.037506835000",
        "ShortCode": "ENV",
        "Precheck": "False",
        "Airline": null,
        "DST": "True",
        "UTC": "-7",
        "closestWeatherStationID": "KENV"
      }
    },
    {
      "airport": {
        "Name": "Westchester County Airport",
        "City": "White Plains",
        "State": "New York",
        "Latitude": "41.056170466995",
        "Longitude": "-73.741183306564",
        "ShortCode": "HPN",
        "Precheck": "True",
        "Airline": "Alaska Airlines, American Airlines, Cape Air, Delta Air Lines, JetBlue Airways, United Airlines",
        "DST": "True",
        "UTC": "-5",
        "closestWeatherStationID": "KHPN"
      }
    },
    {
      "airport": {
        "Name": "Western Nebraska Regional Airport",
        "City": "Scottsbluff",
        "State": "Nebraska",
        "Latitude": "41.866626146000",
        "Longitude": "-103.667166858000",
        "ShortCode": "BFF",
        "Precheck": "False",
        "Airline": null,
        "DST": "True",
        "UTC": "-7",
        "closestWeatherStationID": "KBFF"
      }
    },
    {
      "airport": {
        "Name": "Westover Metropolitan Airport",
        "City": "Chicopee",
        "State": "Massachusetts",
        "Latitude": "42.172557655000",
        "Longitude": "-72.594907192000",
        "ShortCode": "CEF",
        "Precheck": "False",
        "Airline": null,
        "DST": "True",
        "UTC": "-5",
        "closestWeatherStationID": "KCEF"
      }
    },
    {
      "airport": {
        "Name": "Wichita Dwight D. Eisenhower National Airport",
        "City": "Wichita",
        "State": "Kansas",
        "Latitude": "37.653062778326",
        "Longitude": "-97.429750273356",
        "ShortCode": "ICT",
        "Precheck": "True",
        "Airline": "Allegiant Air, American Airlines, Delta Air Lines, Southwest Airlines, United Airlines",
        "DST": "True",
        "UTC": "-6",
        "closestWeatherStationID": "KICT"
      }
    },
    {
      "airport": {
        "Name": "Wichita Fall Municipal Airport",
        "City": "Wichita Falls",
        "State": "Texas",
        "Latitude": "33.913707193000",
        "Longitude": "-98.493388998000",
        "ShortCode": "SPS",
        "Precheck": "True",
        "Airline": "American Airlines",
        "DST": "True",
        "UTC": "-6",
        "closestWeatherStationID": "KSPS"
      }
    },
    {
      "airport": {
        "Name": "Wiley Post-Will Rogers Memorial Airport",
        "City": "Barrow",
        "State": "Alaska",
        "Latitude": "71.287776306532",
        "Longitude": "-156.775570219190",
        "ShortCode": "BRW",
        "Precheck": "False",
        "Airline": null,
        "DST": "True",
        "UTC": "-9",
        "closestWeatherStationID": "PABR"
      }
    },
    {
      "airport": {
        "Name": "Wilkes-Barre/Scranton International Airport",
        "City": "Avoca",
        "State": "Pennsylvania",
        "Latitude": "41.337012438175",
        "Longitude": "-75.729398250128",
        "ShortCode": "AVP",
        "Precheck": "True",
        "Airline": "Allegiant Air, American Airlines, Delta Air Lines, United Airlines",
        "DST": "True",
        "UTC": "-5",
        "closestWeatherStationID": "KAVP"
      }
    },
    {
      "airport": {
        "Name": "Will Rogers World Airport",
        "City": "Oklahoma City",
        "State": "Oklahoma",
        "Latitude": "35.396118737791",
        "Longitude": "-97.596805955230",
        "ShortCode": "OKC",
        "Precheck": "True",
        "Airline": "Allegiant Air, American Airlines, Delta Air Lines, Southwest Airlines, United Airlines",
        "DST": "True",
        "UTC": "-6",
        "closestWeatherStationID": "KOKC"
      }
    },
    {
      "airport": {
        "Name": "William P. Hobby Airport",
        "City": "Houston",
        "State": "Texas",
        "Latitude": "29.657801872559",
        "Longitude": "-95.275436068819",
        "ShortCode": "HOU",
        "Precheck": "True",
        "Airline": "American Airlines, Delta Air Lines, JetBlue Airways, Southwest Airlines",
        "DST": "True",
        "UTC": "-6",
        "closestWeatherStationID": "KHOU"
      }
    },
    {
      "airport": {
        "Name": "Williamson County Regional Airport",
        "City": "Marion",
        "State": "Illinois",
        "Latitude": "37.746618636542",
        "Longitude": "-89.010344568846",
        "ShortCode": "MWA",
        "Precheck": "False",
        "Airline": null,
        "DST": "True",
        "UTC": "-6",
        "closestWeatherStationID": "KMWA"
      }
    },
    {
      "airport": {
        "Name": "Williamsport Regional Airport",
        "City": "Williamsport",
        "State": "Pennsylvania",
        "Latitude": "41.241189821000",
        "Longitude": "-77.001078109000",
        "ShortCode": "IPT",
        "Precheck": "False",
        "Airline": null,
        "DST": "True",
        "UTC": "-5",
        "closestWeatherStationID": "KIPT"
      }
    },
    {
      "airport": {
        "Name": "Wilmington International Airport",
        "City": "Wilmington",
        "State": "North Carolina",
        "Latitude": "34.267036093142",
        "Longitude": "-77.910576493809",
        "ShortCode": "ILM",
        "Precheck": "True",
        "Airline": "American Airlines, Delta Air Lines",
        "DST": "True",
        "UTC": "-5",
        "closestWeatherStationID": "KILM"
      }
    },
    {
      "airport": {
        "Name": "Worcester Regional Airport",
        "City": "Worchester",
        "State": "Massachusetts",
        "Latitude": "42.277105876000",
        "Longitude": "-71.853206524000",
        "ShortCode": "ORH",
        "Precheck": "False",
        "Airline": null,
        "DST": "True",
        "UTC": "-5",
        "closestWeatherStationID": "KORH"
      }
    },
    {
      "airport": {
        "Name": "Worland Municipal Airport",
        "City": "Worland",
        "State": "Wyoming",
        "Latitude": "44.016898955000",
        "Longitude": "-107.955369672000",
        "ShortCode": "WRL",
        "Precheck": "False",
        "Airline": null,
        "DST": "True",
        "UTC": "-7",
        "closestWeatherStationID": "KWRL"
      }
    },
    {
      "airport": {
        "Name": "Wrangell Airport",
        "City": "Wrangell",
        "State": "Alaska",
        "Latitude": "56.470826071000",
        "Longitude": "-132.376668590000",
        "ShortCode": "WRG",
        "Precheck": "False",
        "Airline": null,
        "DST": "True",
        "UTC": "-9",
        "closestWeatherStationID": "PAWG"
      }
    },
    {
      "airport": {
        "Name": "Yakima Air Terminal-McAllister Field",
        "City": "Yakima",
        "State": "Washington",
        "Latitude": "46.571353419626",
        "Longitude": "-120.541229845580",
        "ShortCode": "YKM",
        "Precheck": "False",
        "Airline": null,
        "DST": "True",
        "UTC": "-8",
        "closestWeatherStationID": "KYKM"
      }
    },
    {
      "airport": {
        "Name": "Yakutat Airport",
        "City": "Yakutat",
        "State": "Alaska",
        "Latitude": "59.507976624023",
        "Longitude": "-139.670525588180",
        "ShortCode": "YAK",
        "Precheck": "False",
        "Airline": null,
        "DST": "True",
        "UTC": "-9",
        "closestWeatherStationID": "PAYA"
      }
    },
    {
      "airport": {
        "Name": "Yampa Valley Regional  Airport",
        "City": "Hayden",
        "State": "Colorado",
        "Latitude": "40.495286526000",
        "Longitude": "-107.257288132000",
        "ShortCode": "HDN",
        "Precheck": "True",
        "Airline": "American Airlines, Delta Air Lines, United Airlines, Alaska Airlines",
        "DST": "True",
        "UTC": "-7",
        "closestWeatherStationID": "KHDN"
      }
    },
    {
      "airport": {
        "Name": "Yeager Airport",
        "City": "Charleston",
        "State": "West Virginia",
        "Latitude": "38.370318193131",
        "Longitude": "-81.596349379819",
        "ShortCode": "CRW",
        "Precheck": "True",
        "Airline": "American Airlines, Delta Air Lines, Spirit Airlines, United Airlines",
        "DST": "True",
        "UTC": "-5",
        "closestWeatherStationID": "KCRW"
      }
    },
    {
      "airport": {
        "Name": "Yellowstone Airport",
        "City": "West Yellowstone",
        "State": "Montana",
        "Latitude": "44.688388900000",
        "Longitude": "-111.117638900000",
        "ShortCode": "WYS",
        "Precheck": "False",
        "Airline": null,
        "DST": "True",
        "UTC": "-7",
        "closestWeatherStationID": "KWYS"
      }
    },
    {
      "airport": {
        "Name": "Yellowstone Regional Airport",
        "City": "Cody",
        "State": "Wyoming",
        "Latitude": "44.526339239000",
        "Longitude": "-109.056529936000",
        "ShortCode": "COD",
        "Precheck": "False",
        "Airline": null,
        "DST": "True",
        "UTC": "-7",
        "closestWeatherStationID": "KCOD"
      }
    },
    {
      "airport": {
        "Name": "Youngstown-Warren Regional Airport",
        "City": "Vienna",
        "State": "Ohio",
        "Latitude": "41.257462563048",
        "Longitude": "-80.663824561653",
        "ShortCode": "YNG",
        "Precheck": "False",
        "Airline": null,
        "DST": "True",
        "UTC": "-5",
        "closestWeatherStationID": "KYNG"
      }
    },
    {
      "airport": {
        "Name": "Yuma International Airport",
        "City": "Yuma",
        "State": "Arizona",
        "Latitude": "32.669342623564",
        "Longitude": "-114.597528644330",
        "ShortCode": "NYL",
        "Precheck": "False",
        "Airline": null,
        "DST": "False",
        "UTC": "-7",
        "closestWeatherStationID": "KNYL"
      }
    }
  ]
}